{"nodes":{"940GZZBPSUST":{"id":"940GZZBPSUST","lat":51.479932,"lng":-0.142142,"type":"station","name":"Battersea Power","lines":["northern"]},"940GZZLUACT":{"id":"940GZZLUACT","lat":51.503057,"lng":-0.280462,"type":"station","name":"Acton Town","lines":["piccadilly","district"]},"940GZZLUACY":{"id":"940GZZLUACY","lat":51.565478,"lng":-0.134819,"type":"station","name":"Archway","lines":["northern"]},"940GZZLUADE":{"id":"940GZZLUADE","lat":51.515037,"lng":-0.072384,"type":"station","name":"Aldgate East","lines":["district","hammersmith-city"]},"940GZZLUAGL":{"id":"940GZZLUAGL","lat":51.532624,"lng":-0.105898,"type":"station","name":"Angel","lines":["northern"]},"940GZZLUALD":{"id":"940GZZLUALD","lat":51.514246,"lng":-0.075689,"type":"station","name":"Aldgate","lines":["circle","metropolitan"]},"940GZZLUALP":{"id":"940GZZLUALP","lat":51.540627,"lng":-0.29961,"type":"station","name":"Alperton","lines":["piccadilly"]},"940GZZLUASG":{"id":"940GZZLUASG","lat":51.616446,"lng":-0.133062,"type":"station","name":"Arnos Grove","lines":["piccadilly"]},"940GZZLUASL":{"id":"940GZZLUASL","lat":51.558655,"lng":-0.107457,"type":"station","name":"Arsenal","lines":["piccadilly"]},"940GZZLUBBB":{"id":"940GZZLUBBB","lat":51.524839,"lng":-0.011538,"type":"station","name":"Bromley-by-Bow","lines":["district","hammersmith-city"]},"940GZZLUBBN":{"id":"940GZZLUBBN","lat":51.520275,"lng":-0.097993,"type":"station","name":"Barbican","lines":["metropolitan","hammersmith-city","circle"]},"940GZZLUBDS":{"id":"940GZZLUBDS","lat":51.607034,"lng":-0.124235,"type":"station","name":"Bounds Green","lines":["piccadilly"]},"940GZZLUBEC":{"id":"940GZZLUBEC","lat":51.540331,"lng":0.127016,"type":"station","name":"Becontree","lines":["district"]},"940GZZLUBKE":{"id":"940GZZLUBKE","lat":51.585689,"lng":0.088585,"type":"station","name":"Barkingside","lines":["central"]},"940GZZLUBKF":{"id":"940GZZLUBKF","lat":51.511581,"lng":-0.103659,"type":"station","name":"Blackfriars","lines":["district","circle"]},"940GZZLUBKG":{"id":"940GZZLUBKG","lat":51.539321,"lng":0.081053,"type":"station","name":"Barking","lines":["district","hammersmith-city"]},"940GZZLUBKH":{"id":"940GZZLUBKH","lat":51.626605,"lng":0.046757,"type":"station","name":"Buckhurst Hill","lines":["central","w14","167","677"]},"940GZZLUBLG":{"id":"940GZZLUBLG","lat":51.527222,"lng":-0.055506,"type":"station","name":"Bethnal Green","lines":["central"]},"940GZZLUBLM":{"id":"940GZZLUBLM","lat":51.443288,"lng":-0.152997,"type":"station","name":"Balham","lines":["northern"]},"940GZZLUBLR":{"id":"940GZZLUBLR","lat":51.586919,"lng":-0.04115,"type":"station","name":"Blackhorse Road","lines":["victoria"]},"940GZZLUBMY":{"id":"940GZZLUBMY","lat":51.49775,"lng":-0.063993,"type":"station","name":"Bermondsey","lines":["jubilee"]},"940GZZLUBND":{"id":"940GZZLUBND","lat":51.514304,"lng":-0.149723,"type":"station","name":"Bond Street","lines":["jubilee","central"]},"940GZZLUBNK":{"id":"940GZZLUBNK","lat":51.513356,"lng":-0.088899,"type":"station","name":"Bank","lines":["central","waterloo-city","northern"]},"940GZZLUBOR":{"id":"940GZZLUBOR","lat":51.501199,"lng":-0.09337,"type":"station","name":"Borough","lines":["northern"]},"940GZZLUBOS":{"id":"940GZZLUBOS","lat":51.495635,"lng":-0.324939,"type":"station","name":"Boston Manor","lines":["piccadilly"]},"940GZZLUBSC":{"id":"940GZZLUBSC","lat":51.490311,"lng":-0.213427,"type":"station","name":"Barons Court","lines":["piccadilly","district"]},"940GZZLUBST":{"id":"940GZZLUBST","lat":51.522883,"lng":-0.15713,"type":"station","name":"Baker Street","lines":["metropolitan","hammersmith-city","circle","jubilee","bakerloo"]},"940GZZLUBTK":{"id":"940GZZLUBTK","lat":51.602774,"lng":-0.264048,"type":"station","name":"Burnt Oak","lines":["northern"]},"940GZZLUBTX":{"id":"940GZZLUBTX","lat":51.57665,"lng":-0.213622,"type":"station","name":"Brent Cross","lines":["northern"]},"940GZZLUBWR":{"id":"940GZZLUBWR","lat":51.52694,"lng":-0.025128,"type":"station","name":"Bow Road","lines":["district","hammersmith-city"]},"940GZZLUBWT":{"id":"940GZZLUBWT","lat":51.512284,"lng":-0.187938,"type":"station","name":"Bayswater","lines":["district","circle"]},"940GZZLUBXN":{"id":"940GZZLUBXN","lat":51.462618,"lng":-0.114888,"type":"station","name":"Brixton","lines":["victoria"]},"940GZZLUBZP":{"id":"940GZZLUBZP","lat":51.550311,"lng":-0.164648,"type":"station","name":"Belsize Park","lines":["northern"]},"940GZZLUCAR":{"id":"940GZZLUCAR","lat":51.548519,"lng":-0.118493,"type":"station","name":"Caledonian Road","lines":["piccadilly"]},"940GZZLUCFM":{"id":"940GZZLUCFM","lat":51.544118,"lng":-0.153388,"type":"station","name":"Chalk Farm","lines":["northern"]},"940GZZLUCGN":{"id":"940GZZLUCGN","lat":51.513093,"lng":-0.124436,"type":"station","name":"Covent Garden","lines":["piccadilly"]},"940GZZLUCGT":{"id":"940GZZLUCGT","lat":51.513584,"lng":0.008322,"type":"station","name":"Canning Town","lines":["jubilee"]},"940GZZLUCHL":{"id":"940GZZLUCHL","lat":51.518247,"lng":-0.111583,"type":"station","name":"Chancery Lane","lines":["central"]},"940GZZLUCHX":{"id":"940GZZLUCHX","lat":51.50741,"lng":-0.127277,"type":"station","name":"Charing Cross","lines":["bakerloo","northern"]},"940GZZLUCKS":{"id":"940GZZLUCKS","lat":51.65152,"lng":-0.149171,"type":"station","name":"Cockfosters","lines":["piccadilly"]},"940GZZLUCND":{"id":"940GZZLUCND","lat":51.595424,"lng":-0.249919,"type":"station","name":"Colindale","lines":["northern"]},"940GZZLUCPC":{"id":"940GZZLUCPC","lat":51.461742,"lng":-0.138317,"type":"station","name":"Clapham Common","lines":["northern"]},"940GZZLUCPK":{"id":"940GZZLUCPK","lat":51.607701,"lng":-0.294693,"type":"station","name":"Canons Park","lines":["jubilee"]},"940GZZLUCPN":{"id":"940GZZLUCPN","lat":51.465135,"lng":-0.130016,"type":"station","name":"Clapham North","lines":["northern"]},"940GZZLUCPS":{"id":"940GZZLUCPS","lat":51.452654,"lng":-0.147582,"type":"station","name":"Clapham South","lines":["northern"]},"940GZZLUCSD":{"id":"940GZZLUCSD","lat":51.41816,"lng":-0.178086,"type":"station","name":"Colliers Wood","lines":["northern"]},"940GZZLUCST":{"id":"940GZZLUCST","lat":51.51151,"lng":-0.090432,"type":"station","name":"Cannon Street","lines":["circle","district"]},"940GZZLUCTN":{"id":"940GZZLUCTN","lat":51.539292,"lng":-0.14274,"type":"station","name":"Camden Town","lines":["northern"]},"940GZZLUCWL":{"id":"940GZZLUCWL","lat":51.617916,"lng":0.075041,"type":"station","name":"Chigwell","lines":["central","667","677","167"]},"940GZZLUCWP":{"id":"940GZZLUCWP","lat":51.494627,"lng":-0.267972,"type":"station","name":"Chiswick Park","lines":["district"]},"940GZZLUCWR":{"id":"940GZZLUCWR","lat":51.497931,"lng":-0.049405,"type":"station","name":"Canada Water","lines":["jubilee"]},"940GZZLUCXY":{"id":"940GZZLUCXY","lat":51.647044,"lng":-0.441718,"type":"station","name":"Croxley","lines":["metropolitan"]},"940GZZLUCYD":{"id":"940GZZLUCYD","lat":51.654358,"lng":-0.518461,"type":"station","name":"Chorleywood","lines":["metropolitan"]},"940GZZLUCYF":{"id":"940GZZLUCYF","lat":51.503488,"lng":-0.018246,"type":"station","name":"Canary Wharf","lines":["jubilee"]},"940GZZLUDBN":{"id":"940GZZLUDBN","lat":51.645386,"lng":0.083782,"type":"station","name":"Debden","lines":["central"]},"940GZZLUDGE":{"id":"940GZZLUDGE","lat":51.544096,"lng":0.166017,"type":"station","name":"Dagenham East","lines":["district"]},"940GZZLUDGY":{"id":"940GZZLUDGY","lat":51.541639,"lng":0.147527,"type":"station","name":"Dagenham Heathway","lines":["district"]},"940GZZLUDOH":{"id":"940GZZLUDOH","lat":51.551955,"lng":-0.239068,"type":"station","name":"Dollis Hill","lines":["jubilee"]},"940GZZLUEAC":{"id":"940GZZLUEAC","lat":51.494536,"lng":-0.100606,"type":"station","name":"Elephant & Castle","lines":["bakerloo","northern"]},"940GZZLUEAE":{"id":"940GZZLUEAE","lat":51.576506,"lng":-0.397373,"type":"station","name":"Eastcote","lines":["metropolitan","piccadilly"]},"940GZZLUEAN":{"id":"940GZZLUEAN","lat":51.516612,"lng":-0.247248,"type":"station","name":"East Acton","lines":["central"]},"940GZZLUEBY":{"id":"940GZZLUEBY","lat":51.515017,"lng":-0.301457,"type":"station","name":"Ealing Broadway","lines":["central","district"]},"940GZZLUECM":{"id":"940GZZLUECM","lat":51.51014,"lng":-0.288265,"type":"station","name":"Ealing Common","lines":["district","piccadilly"]},"940GZZLUECT":{"id":"940GZZLUECT","lat":51.492063,"lng":-0.193378,"type":"station","name":"Earl's Court","lines":["district","piccadilly"]},"940GZZLUEFY":{"id":"940GZZLUEFY","lat":51.587131,"lng":-0.165012,"type":"station","name":"East Finchley","lines":["northern"]},"940GZZLUEGW":{"id":"940GZZLUEGW","lat":51.613653,"lng":-0.274928,"type":"station","name":"Edgware","lines":["northern"]},"940GZZLUEHM":{"id":"940GZZLUEHM","lat":51.538948,"lng":0.051186,"type":"station","name":"East Ham","lines":["district","hammersmith-city"]},"940GZZLUEMB":{"id":"940GZZLUEMB","lat":51.507058,"lng":-0.122666,"type":"station","name":"Embankment","lines":["district","circle","bakerloo","northern"]},"940GZZLUEPG":{"id":"940GZZLUEPG","lat":51.69368,"lng":0.113767,"type":"station","name":"Epping","lines":["central"]},"940GZZLUEPK":{"id":"940GZZLUEPK","lat":51.549775,"lng":0.19864,"type":"station","name":"Elm Park","lines":["district"]},"940GZZLUEPY":{"id":"940GZZLUEPY","lat":51.459205,"lng":-0.211,"type":"station","name":"East Putney","lines":["district"]},"940GZZLUERB":{"id":"940GZZLUERB","lat":51.520299,"lng":-0.17015,"type":"station","name":"Edgware Road (Bakerloo)","lines":["bakerloo"]},"940GZZLUERC":{"id":"940GZZLUERC","lat":51.519858,"lng":-0.167832,"type":"station","name":"Edgware Road (Circle Line)","lines":["circle","district","hammersmith-city"]},"940GZZLUESQ":{"id":"940GZZLUESQ","lat":51.525604,"lng":-0.135829,"type":"station","name":"Euston Square","lines":["hammersmith-city","circle","metropolitan"]},"940GZZLUEUS":{"id":"940GZZLUEUS","lat":51.528344,"lng":-0.1323,"type":"station","name":"Euston","lines":["victoria","northern"]},"940GZZLUFBY":{"id":"940GZZLUFBY","lat":51.480081,"lng":-0.195422,"type":"station","name":"Fulham Broadway","lines":["district"]},"940GZZLUFCN":{"id":"940GZZLUFCN","lat":51.520252,"lng":-0.104913,"type":"station","name":"Farringdon","lines":["circle","hammersmith-city","metropolitan"]},"940GZZLUFLP":{"id":"940GZZLUFLP","lat":51.595618,"lng":0.091004,"type":"station","name":"Fairlop","lines":["central"]},"940GZZLUFPK":{"id":"940GZZLUFPK","lat":51.564158,"lng":-0.106825,"type":"station","name":"Finsbury Park","lines":["piccadilly","victoria"]},"940GZZLUFYC":{"id":"940GZZLUFYC","lat":51.600921,"lng":-0.192527,"type":"station","name":"Finchley Central","lines":["northern"]},"940GZZLUFYR":{"id":"940GZZLUFYR","lat":51.546825,"lng":-0.179845,"type":"station","name":"Finchley Road","lines":["jubilee","metropolitan"]},"940GZZLUGBY":{"id":"940GZZLUGBY","lat":51.491803,"lng":-0.275267,"type":"station","name":"Gunnersbury","lines":["district"]},"940GZZLUGDG":{"id":"940GZZLUGDG","lat":51.520599,"lng":-0.134361,"type":"station","name":"Goodge Street","lines":["northern"]},"940GZZLUGFD":{"id":"940GZZLUGFD","lat":51.542424,"lng":-0.34605,"type":"station","name":"Greenford","lines":["central"]},"940GZZLUGGH":{"id":"940GZZLUGGH","lat":51.613378,"lng":0.092066,"type":"station","name":"Grange Hill","lines":["central","462"]},"940GZZLUGGN":{"id":"940GZZLUGGN","lat":51.572259,"lng":-0.194039,"type":"station","name":"Golders Green","lines":["northern"]},"940GZZLUGHK":{"id":"940GZZLUGHK","lat":51.502005,"lng":-0.226715,"type":"station","name":"Goldhawk Road","lines":["circle","hammersmith-city"]},"940GZZLUGPK":{"id":"940GZZLUGPK","lat":51.506947,"lng":-0.142787,"type":"station","name":"Green Park","lines":["jubilee","piccadilly","victoria"]},"940GZZLUGPS":{"id":"940GZZLUGPS","lat":51.52384,"lng":-0.144262,"type":"station","name":"Great Portland Street","lines":["hammersmith-city","circle","metropolitan"]},"940GZZLUGTH":{"id":"940GZZLUGTH","lat":51.576544,"lng":0.066185,"type":"station","name":"Gants Hill","lines":["central"]},"940GZZLUGTR":{"id":"940GZZLUGTR","lat":51.494316,"lng":-0.182658,"type":"station","name":"Gloucester Road","lines":["circle","district","piccadilly"]},"940GZZLUHAI":{"id":"940GZZLUHAI","lat":51.54635,"lng":-0.103324,"type":"station","name":"Highbury & Islington","lines":["victoria"]},"940GZZLUHAW":{"id":"940GZZLUHAW","lat":51.592268,"lng":-0.335217,"type":"station","name":"Harrow & Wealdstone","lines":["bakerloo"]},"940GZZLUHBN":{"id":"940GZZLUHBN","lat":51.51758,"lng":-0.120475,"type":"station","name":"Holborn","lines":["central","piccadilly"]},"940GZZLUHBT":{"id":"940GZZLUHBT","lat":51.650541,"lng":-0.194298,"type":"station","name":"High Barnet","lines":["northern"]},"940GZZLUHCH":{"id":"940GZZLUHCH","lat":51.554093,"lng":0.219116,"type":"station","name":"Hornchurch","lines":["district"]},"940GZZLUHCL":{"id":"940GZZLUHCL","lat":51.583301,"lng":-0.226424,"type":"station","name":"Hendon Central","lines":["northern"]},"940GZZLUHGD":{"id":"940GZZLUHGD","lat":51.553715,"lng":-0.449828,"type":"station","name":"Hillingdon","lines":["piccadilly","metropolitan"]},"940GZZLUHGR":{"id":"940GZZLUHGR","lat":51.530177,"lng":-0.292704,"type":"station","name":"Hanger Lane","lines":["central"]},"940GZZLUHGT":{"id":"940GZZLUHGT","lat":51.577532,"lng":-0.145857,"type":"station","name":"Highgate","lines":["northern"]},"940GZZLUHLT":{"id":"940GZZLUHLT","lat":51.603659,"lng":0.093482,"type":"station","name":"Hainault","lines":["central"]},"940GZZLUHNX":{"id":"940GZZLUHNX","lat":51.466747,"lng":-0.423191,"type":"station","name":"Hatton Cross","lines":["piccadilly"]},"940GZZLUHOH":{"id":"940GZZLUHOH","lat":51.579195,"lng":-0.337225,"type":"station","name":"Harrow-on-the-Hill","lines":["metropolitan"]},"940GZZLUHPC":{"id":"940GZZLUHPC","lat":51.503035,"lng":-0.152441,"type":"station","name":"Hyde Park Corner","lines":["piccadilly"]},"940GZZLUHPK":{"id":"940GZZLUHPK","lat":51.507143,"lng":-0.205679,"type":"station","name":"Holland Park","lines":["central"]},"940GZZLUHR4":{"id":"940GZZLUHR4","lat":51.458524,"lng":-0.445771,"type":"station","name":"Heathrow Terminal 4","lines":["piccadilly"]},"940GZZLUHR5":{"id":"940GZZLUHR5","lat":51.470052,"lng":-0.49056,"type":"station","name":"Heathrow Terminal 5","lines":["piccadilly"]},"940GZZLUHRC":{"id":"940GZZLUHRC","lat":51.471235,"lng":-0.452265,"type":"station","name":"Heathrow Terminals 2 & 3","lines":["piccadilly"]},"940GZZLUHSC":{"id":"940GZZLUHSC","lat":51.49339,"lng":-0.22503,"type":"station","name":"Hammersmith (H&C Line)","lines":["circle","hammersmith-city"]},"940GZZLUHSD":{"id":"940GZZLUHSD","lat":51.4923,"lng":-0.22362,"type":"station","name":"Hammersmith (Dist&Picc Line)","lines":["piccadilly","district"]},"940GZZLUHSK":{"id":"940GZZLUHSK","lat":51.501055,"lng":-0.192792,"type":"station","name":"High Street Kensington","lines":["district","circle"]},"940GZZLUHSN":{"id":"940GZZLUHSN","lat":51.53631,"lng":-0.257883,"type":"station","name":"Harlesden","lines":["bakerloo"]},"940GZZLUHTD":{"id":"940GZZLUHTD","lat":51.556239,"lng":-0.177464,"type":"station","name":"Hampstead","lines":["northern"]},"940GZZLUHWC":{"id":"940GZZLUHWC","lat":51.471295,"lng":-0.366578,"type":"station","name":"Hounslow Central","lines":["piccadilly"]},"940GZZLUHWE":{"id":"940GZZLUHWE","lat":51.473213,"lng":-0.356474,"type":"station","name":"Hounslow East","lines":["piccadilly"]},"940GZZLUHWT":{"id":"940GZZLUHWT","lat":51.473469,"lng":-0.386544,"type":"station","name":"Hounslow West","lines":["piccadilly"]},"940GZZLUHWY":{"id":"940GZZLUHWY","lat":51.552697,"lng":-0.113244,"type":"station","name":"Holloway Road","lines":["piccadilly"]},"940GZZLUICK":{"id":"940GZZLUICK","lat":51.561992,"lng":-0.442001,"type":"station","name":"Ickenham","lines":["piccadilly","metropolitan"]},"940GZZLUKBN":{"id":"940GZZLUKBN","lat":51.547183,"lng":-0.204248,"type":"station","name":"Kilburn","lines":["jubilee"]},"940GZZLUKBY":{"id":"940GZZLUKBY","lat":51.584845,"lng":-0.27879,"type":"station","name":"Kingsbury","lines":["jubilee"]},"940GZZLUKEN":{"id":"940GZZLUKEN","lat":51.581756,"lng":-0.31691,"type":"station","name":"Kenton","lines":["bakerloo"]},"940GZZLUKNB":{"id":"940GZZLUKNB","lat":51.501669,"lng":-0.160508,"type":"station","name":"Knightsbridge","lines":["22","c1","n137","19","452","137","piccadilly","n19","n22"]},"940GZZLUKNG":{"id":"940GZZLUKNG","lat":51.488337,"lng":-0.105963,"type":"station","name":"Kennington","lines":["northern"]},"940GZZLUKOY":{"id":"940GZZLUKOY","lat":51.497624,"lng":-0.210015,"type":"station","name":"Kensington (Olympia)","lines":["district"]},"940GZZLUKPK":{"id":"940GZZLUKPK","lat":51.534979,"lng":-0.194232,"type":"station","name":"Kilburn Park","lines":["bakerloo"]},"940GZZLUKSH":{"id":"940GZZLUKSH","lat":51.550312,"lng":-0.140733,"type":"station","name":"Kentish Town","lines":["northern"]},"940GZZLUKSL":{"id":"940GZZLUKSL","lat":51.530539,"lng":-0.225016,"type":"station","name":"Kensal Green","lines":["bakerloo"]},"940GZZLUKSX":{"id":"940GZZLUKSX","lat":51.530663,"lng":-0.123194,"type":"station","name":"King's Cross St. Pancras","lines":["victoria","piccadilly","circle","hammersmith-city","northern","metropolitan"]},"940GZZLUKWG":{"id":"940GZZLUKWG","lat":51.477058,"lng":-0.285241,"type":"station","name":"Kew Gardens","lines":["district"]},"940GZZLULAD":{"id":"940GZZLULAD","lat":51.517449,"lng":-0.210391,"type":"station","name":"Ladbroke Grove","lines":["circle","hammersmith-city"]},"940GZZLULBN":{"id":"940GZZLULBN","lat":51.498808,"lng":-0.112315,"type":"station","name":"Lambeth North","lines":["bakerloo"]},"940GZZLULGN":{"id":"940GZZLULGN","lat":51.641443,"lng":0.055476,"type":"station","name":"Loughton","lines":["397","central","w14","20","167","677"]},"940GZZLULGT":{"id":"940GZZLULGT","lat":51.511723,"lng":-0.175494,"type":"station","name":"Lancaster Gate","lines":["central"]},"940GZZLULNB":{"id":"940GZZLULNB","lat":51.505721,"lng":-0.088873,"type":"station","name":"London Bridge","lines":["northern","jubilee"]},"940GZZLULRD":{"id":"940GZZLULRD","lat":51.513389,"lng":-0.217799,"type":"station","name":"Latimer Road","lines":["hammersmith-city","circle"]},"940GZZLULSQ":{"id":"940GZZLULSQ","lat":51.511386,"lng":-0.128426,"type":"station","name":"Leicester Square","lines":["northern","piccadilly"]},"940GZZLULVT":{"id":"940GZZLULVT","lat":51.517372,"lng":-0.083182,"type":"station","name":"Liverpool Street","lines":["circle","hammersmith-city","central","metropolitan"]},"940GZZLULYN":{"id":"940GZZLULYN","lat":51.556589,"lng":-0.005523,"type":"station","name":"Leyton","lines":["central"]},"940GZZLULYS":{"id":"940GZZLULYS","lat":51.568324,"lng":0.008194,"type":"station","name":"Leytonstone","lines":["central"]},"940GZZLUMBA":{"id":"940GZZLUMBA","lat":51.513424,"lng":-0.158953,"type":"station","name":"Marble Arch","lines":["central"]},"940GZZLUMDN":{"id":"940GZZLUMDN","lat":51.402142,"lng":-0.194839,"type":"station","name":"Morden","lines":["northern"]},"940GZZLUMED":{"id":"940GZZLUMED","lat":51.525122,"lng":-0.03364,"type":"station","name":"Mile End","lines":["central","hammersmith-city","district"]},"940GZZLUMGT":{"id":"940GZZLUMGT","lat":51.518176,"lng":-0.088322,"type":"station","name":"Moorgate","lines":["circle","hammersmith-city","metropolitan","northern"]},"940GZZLUMHL":{"id":"940GZZLUMHL","lat":51.608229,"lng":-0.209986,"type":"station","name":"Mill Hill East","lines":["northern"]},"940GZZLUMMT":{"id":"940GZZLUMMT","lat":51.5107,"lng":-0.085969,"type":"station","name":"Monument","lines":["district","circle"]},"940GZZLUMPK":{"id":"940GZZLUMPK","lat":51.629845,"lng":-0.432454,"type":"station","name":"Moor Park","lines":["metropolitan"]},"940GZZLUMRH":{"id":"940GZZLUMRH","lat":51.570738,"lng":-0.096118,"type":"station","name":"Manor House","lines":["piccadilly"]},"940GZZLUMSH":{"id":"940GZZLUMSH","lat":51.512117,"lng":-0.094009,"type":"station","name":"Mansion House","lines":["circle","district"]},"940GZZLUMTC":{"id":"940GZZLUMTC","lat":51.534679,"lng":-0.138789,"type":"station","name":"Mornington Crescent","lines":["northern"]},"940GZZLUMVL":{"id":"940GZZLUMVL","lat":51.529777,"lng":-0.185758,"type":"station","name":"Maida Vale","lines":["bakerloo"]},"940GZZLUMYB":{"id":"940GZZLUMYB","lat":51.522322,"lng":-0.163207,"type":"station","name":"Marylebone","lines":["bakerloo"]},"940GZZLUNAN":{"id":"940GZZLUNAN","lat":51.523524,"lng":-0.259755,"type":"station","name":"North Acton","lines":["central"]},"940GZZLUNBP":{"id":"940GZZLUNBP","lat":51.575726,"lng":0.090004,"type":"station","name":"Newbury Park","lines":["central"]},"940GZZLUNDN":{"id":"940GZZLUNDN","lat":51.553986,"lng":-0.249837,"type":"station","name":"Neasden","lines":["jubilee"]},"940GZZLUNEN":{"id":"940GZZLUNEN","lat":51.517505,"lng":-0.288868,"type":"station","name":"North Ealing","lines":["piccadilly"]},"940GZZLUNFD":{"id":"940GZZLUNFD","lat":51.499319,"lng":-0.314719,"type":"station","name":"Northfields","lines":["piccadilly"]},"940GZZLUNGW":{"id":"940GZZLUNGW","lat":51.50047,"lng":0.004287,"type":"station","name":"North Greenwich","lines":["jubilee"]},"940GZZLUNHA":{"id":"940GZZLUNHA","lat":51.584872,"lng":-0.362408,"type":"station","name":"North Harrow","lines":["metropolitan"]},"940GZZLUNHG":{"id":"940GZZLUNHG","lat":51.509128,"lng":-0.196104,"type":"station","name":"Notting Hill Gate","lines":["district","circle","central"]},"940GZZLUNHT":{"id":"940GZZLUNHT","lat":51.548236,"lng":-0.368699,"type":"station","name":"Northolt","lines":["central"]},"940GZZLUNKP":{"id":"940GZZLUNKP","lat":51.578481,"lng":-0.318056,"type":"station","name":"Northwick Park","lines":["metropolitan"]},"940GZZLUNOW":{"id":"940GZZLUNOW","lat":51.611053,"lng":-0.423829,"type":"station","name":"Northwood","lines":["metropolitan"]},"940GZZLUNWH":{"id":"940GZZLUNWH","lat":51.600572,"lng":-0.409464,"type":"station","name":"Northwood Hills","lines":["metropolitan"]},"940GZZLUNWY":{"id":"940GZZLUNWY","lat":51.562551,"lng":-0.304,"type":"station","name":"North Wembley","lines":["bakerloo"]},"940GZZLUOAK":{"id":"940GZZLUOAK","lat":51.647726,"lng":-0.132182,"type":"station","name":"Oakwood","lines":["piccadilly"]},"940GZZLUODS":{"id":"940GZZLUODS","lat":51.525864,"lng":-0.08777,"type":"station","name":"Old Street","lines":["northern"]},"940GZZLUOSY":{"id":"940GZZLUOSY","lat":51.481274,"lng":-0.352224,"type":"station","name":"Osterley","lines":["piccadilly"]},"940GZZLUOVL":{"id":"940GZZLUOVL","lat":51.48185,"lng":-0.112439,"type":"station","name":"Oval","lines":["northern"]},"940GZZLUOXC":{"id":"940GZZLUOXC","lat":51.515224,"lng":-0.141903,"type":"station","name":"Oxford Circus","lines":["bakerloo","victoria","central"]},"940GZZLUPAC":{"id":"940GZZLUPAC","lat":51.516581,"lng":-0.175689,"type":"station","name":"Paddington","lines":["bakerloo","circle","district"]},"940GZZLUPAH":{"id":"940GZZLUPAH","lat":51.518187,"lng":-0.178306,"type":"station","name":"Paddington (H&C Line)-Underground","lines":["hammersmith-city","circle"]},"940GZZLUPCC":{"id":"940GZZLUPCC","lat":51.51005,"lng":-0.133798,"type":"station","name":"Piccadilly Circus","lines":["piccadilly","bakerloo"]},"940GZZLUPCO":{"id":"940GZZLUPCO","lat":51.489097,"lng":-0.133761,"type":"station","name":"Pimlico","lines":["victoria"]},"940GZZLUPKR":{"id":"940GZZLUPKR","lat":51.527123,"lng":-0.284341,"type":"station","name":"Park Royal","lines":["piccadilly"]},"940GZZLUPLW":{"id":"940GZZLUPLW","lat":51.531341,"lng":0.017451,"type":"station","name":"Plaistow","lines":["district","hammersmith-city"]},"940GZZLUPNR":{"id":"940GZZLUPNR","lat":51.592901,"lng":-0.381161,"type":"station","name":"Pinner","lines":["metropolitan"]},"940GZZLUPRD":{"id":"940GZZLUPRD","lat":51.571972,"lng":-0.295107,"type":"station","name":"Preston Road","lines":["metropolitan"]},"940GZZLUPSG":{"id":"940GZZLUPSG","lat":51.475277,"lng":-0.20117,"type":"station","name":"Parsons Green","lines":["district"]},"940GZZLUPVL":{"id":"940GZZLUPVL","lat":51.536717,"lng":-0.323446,"type":"station","name":"Perivale","lines":["central"]},"940GZZLUPYB":{"id":"940GZZLUPYB","lat":51.468262,"lng":-0.208731,"type":"station","name":"Putney Bridge","lines":["district"]},"940GZZLUQBY":{"id":"940GZZLUQBY","lat":51.594188,"lng":-0.286219,"type":"station","name":"Queensbury","lines":["jubilee"]},"940GZZLUQPS":{"id":"940GZZLUQPS","lat":51.534158,"lng":-0.204574,"type":"station","name":"Queen's Park","lines":["bakerloo"]},"940GZZLUQWY":{"id":"940GZZLUQWY","lat":51.510312,"lng":-0.187152,"type":"station","name":"Queensway","lines":["central"]},"940GZZLURBG":{"id":"940GZZLURBG","lat":51.576243,"lng":0.04536,"type":"station","name":"Redbridge","lines":["central"]},"940GZZLURGP":{"id":"940GZZLURGP","lat":51.523344,"lng":-0.146444,"type":"station","name":"Regent's Park","lines":["bakerloo"]},"940GZZLURKW":{"id":"940GZZLURKW","lat":51.640207,"lng":-0.473703,"type":"station","name":"Rickmansworth","lines":["metropolitan"]},"940GZZLURMD":{"id":"940GZZLURMD","lat":51.463237,"lng":-0.301336,"type":"station","name":"Richmond","lines":["district"]},"940GZZLURSG":{"id":"940GZZLURSG","lat":51.560736,"lng":-0.41071,"type":"station","name":"Ruislip Gardens","lines":["central"]},"940GZZLURSM":{"id":"940GZZLURSM","lat":51.573202,"lng":-0.412973,"type":"station","name":"Ruislip Manor","lines":["piccadilly","metropolitan"]},"940GZZLURSP":{"id":"940GZZLURSP","lat":51.571354,"lng":-0.421898,"type":"station","name":"Ruislip","lines":["piccadilly","metropolitan"]},"940GZZLURSQ":{"id":"940GZZLURSQ","lat":51.523073,"lng":-0.124285,"type":"station","name":"Russell Square","lines":["piccadilly"]},"940GZZLURVP":{"id":"940GZZLURVP","lat":51.494122,"lng":-0.235881,"type":"station","name":"Ravenscourt Park","lines":["district"]},"940GZZLURVY":{"id":"940GZZLURVY","lat":51.617199,"lng":0.043647,"type":"station","name":"Roding Valley","lines":["central"]},"940GZZLURYL":{"id":"940GZZLURYL","lat":51.575147,"lng":-0.371127,"type":"station","name":"Rayners Lane","lines":["metropolitan","piccadilly"]},"940GZZLURYO":{"id":"940GZZLURYO","lat":51.519113,"lng":-0.188748,"type":"station","name":"Royal Oak","lines":["circle","hammersmith-city"]},"940GZZLUSBC":{"id":"940GZZLUSBC","lat":51.504376,"lng":-0.218813,"type":"station","name":"Shepherd's Bush (Central)","lines":["central"]},"940GZZLUSBM":{"id":"940GZZLUSBM","lat":51.505579,"lng":-0.226375,"type":"station","name":"Shepherd's Bush Market","lines":["hammersmith-city","circle"]},"940GZZLUSEA":{"id":"940GZZLUSEA","lat":51.501003,"lng":-0.307424,"type":"station","name":"South Ealing","lines":["piccadilly"]},"940GZZLUSFB":{"id":"940GZZLUSFB","lat":51.494917,"lng":-0.245704,"type":"station","name":"Stamford Brook","lines":["district"]},"940GZZLUSFS":{"id":"940GZZLUSFS","lat":51.445073,"lng":-0.206602,"type":"station","name":"Southfields","lines":["district"]},"940GZZLUSGN":{"id":"940GZZLUSGN","lat":51.521858,"lng":-0.046596,"type":"station","name":"Stepney Green","lines":["district","hammersmith-city"]},"940GZZLUSGP":{"id":"940GZZLUSGP","lat":51.543959,"lng":-0.275892,"type":"station","name":"Stonebridge Park","lines":["bakerloo"]},"940GZZLUSGT":{"id":"940GZZLUSGT","lat":51.632315,"lng":-0.127816,"type":"station","name":"Southgate","lines":["piccadilly"]},"940GZZLUSHH":{"id":"940GZZLUSHH","lat":51.564888,"lng":-0.352492,"type":"station","name":"South Harrow","lines":["piccadilly"]},"940GZZLUSJP":{"id":"940GZZLUSJP","lat":51.499544,"lng":-0.133608,"type":"station","name":"St. James's Park","lines":["district","circle"]},"940GZZLUSJW":{"id":"940GZZLUSJW","lat":51.534521,"lng":-0.173948,"type":"station","name":"St. John's Wood","lines":["jubilee"]},"940GZZLUSKS":{"id":"940GZZLUSKS","lat":51.494094,"lng":-0.174138,"type":"station","name":"South Kensington","lines":["piccadilly","circle","district"]},"940GZZLUSKT":{"id":"940GZZLUSKT","lat":51.570232,"lng":-0.308433,"type":"station","name":"South Kenton","lines":["bakerloo"]},"940GZZLUSKW":{"id":"940GZZLUSKW","lat":51.472184,"lng":-0.122644,"type":"station","name":"Stockwell","lines":["northern","victoria"]},"940GZZLUSNB":{"id":"940GZZLUSNB","lat":51.580678,"lng":0.02144,"type":"station","name":"Snaresbrook","lines":["central"]},"940GZZLUSPU":{"id":"940GZZLUSPU","lat":51.514936,"lng":-0.097567,"type":"station","name":"St. Paul's","lines":["central"]},"940GZZLUSRP":{"id":"940GZZLUSRP","lat":51.556853,"lng":-0.398915,"type":"station","name":"South Ruislip","lines":["central"]},"940GZZLUSSQ":{"id":"940GZZLUSSQ","lat":51.49227,"lng":-0.156377,"type":"station","name":"Sloane Square","lines":["district","circle"]},"940GZZLUSTD":{"id":"940GZZLUSTD","lat":51.541806,"lng":-0.003458,"type":"station","name":"Stratford","lines":["jubilee","central"]},"940GZZLUSTM":{"id":"940GZZLUSTM","lat":51.619839,"lng":-0.303266,"type":"station","name":"Stanmore","lines":["jubilee"]},"940GZZLUSUH":{"id":"940GZZLUSUH","lat":51.556946,"lng":-0.336435,"type":"station","name":"Sudbury Hill","lines":["piccadilly"]},"940GZZLUSUT":{"id":"940GZZLUSUT","lat":51.550815,"lng":-0.315745,"type":"station","name":"Sudbury Town","lines":["piccadilly"]},"940GZZLUSVS":{"id":"940GZZLUSVS","lat":51.58333,"lng":-0.072584,"type":"station","name":"Seven Sisters","lines":["victoria"]},"940GZZLUSWC":{"id":"940GZZLUSWC","lat":51.543681,"lng":-0.174894,"type":"station","name":"Swiss Cottage","lines":["jubilee"]},"940GZZLUSWF":{"id":"940GZZLUSWF","lat":51.591907,"lng":0.027338,"type":"station","name":"South Woodford","lines":["central"]},"940GZZLUSWK":{"id":"940GZZLUSWK","lat":51.50427,"lng":-0.105331,"type":"station","name":"Southwark","lines":["jubilee"]},"940GZZLUSWN":{"id":"940GZZLUSWN","lat":51.415309,"lng":-0.192005,"type":"station","name":"South Wimbledon","lines":["northern"]},"940GZZLUTAW":{"id":"940GZZLUTAW","lat":51.630597,"lng":-0.17921,"type":"station","name":"Totteridge & Whetstone","lines":["northern"]},"940GZZLUTBC":{"id":"940GZZLUTBC","lat":51.435678,"lng":-0.159736,"type":"station","name":"Tooting Bec","lines":["northern"]},"940GZZLUTBY":{"id":"940GZZLUTBY","lat":51.42763,"lng":-0.168374,"type":"station","name":"Tooting Broadway","lines":["northern"]},"940GZZLUTCR":{"id":"940GZZLUTCR","lat":51.516426,"lng":-0.13041,"type":"station","name":"Tottenham Court Road","lines":["northern","central"]},"940GZZLUTFP":{"id":"940GZZLUTFP","lat":51.556822,"lng":-0.138433,"type":"station","name":"Tufnell Park","lines":["northern"]},"940GZZLUTHB":{"id":"940GZZLUTHB","lat":51.671759,"lng":0.103085,"type":"station","name":"Theydon Bois","lines":["central"]},"940GZZLUTMH":{"id":"940GZZLUTMH","lat":51.588108,"lng":-0.060241,"type":"station","name":"Tottenham Hale","lines":["victoria"]},"940GZZLUTMP":{"id":"940GZZLUTMP","lat":51.511006,"lng":-0.11426,"type":"station","name":"Temple","lines":["circle","district"]},"940GZZLUTNG":{"id":"940GZZLUTNG","lat":51.495148,"lng":-0.254555,"type":"station","name":"Turnham Green","lines":["district","piccadilly"]},"940GZZLUTPN":{"id":"940GZZLUTPN","lat":51.590272,"lng":-0.102953,"type":"station","name":"Turnpike Lane","lines":["piccadilly"]},"940GZZLUTWH":{"id":"940GZZLUTWH","lat":51.509971,"lng":-0.076546,"type":"station","name":"Tower Hill","lines":["district","circle"]},"940GZZLUUPB":{"id":"940GZZLUUPB","lat":51.55856,"lng":0.235809,"type":"station","name":"Upminster Bridge","lines":["district"]},"940GZZLUUPK":{"id":"940GZZLUUPK","lat":51.53534,"lng":0.035263,"type":"station","name":"Upton Park","lines":["district","hammersmith-city"]},"940GZZLUUPM":{"id":"940GZZLUUPM","lat":51.559063,"lng":0.250882,"type":"station","name":"Upminster","lines":["district"]},"940GZZLUUPY":{"id":"940GZZLUUPY","lat":51.538372,"lng":0.10153,"type":"station","name":"Upney","lines":["district"]},"940GZZLUUXB":{"id":"940GZZLUUXB","lat":51.546565,"lng":-0.477949,"type":"station","name":"Uxbridge","lines":["piccadilly","metropolitan"]},"940GZZLUVIC":{"id":"940GZZLUVIC","lat":51.496359,"lng":-0.143102,"type":"station","name":"Victoria","lines":["district","circle","victoria"]},"940GZZLUVXL":{"id":"940GZZLUVXL","lat":51.485743,"lng":-0.124204,"type":"station","name":"Vauxhall","lines":["victoria"]},"940GZZLUWAF":{"id":"940GZZLUWAF","lat":51.657446,"lng":-0.417377,"type":"station","name":"Watford","lines":["metropolitan"]},"940GZZLUWBN":{"id":"940GZZLUWBN","lat":51.487268,"lng":-0.195599,"type":"station","name":"West Brompton","lines":["district"]},"940GZZLUWCY":{"id":"940GZZLUWCY","lat":51.511959,"lng":-0.224297,"type":"station","name":"White City","lines":["central"]},"940GZZLUWFN":{"id":"940GZZLUWFN","lat":51.609426,"lng":-0.188362,"type":"station","name":"West Finchley","lines":["northern"]},"940GZZLUWHM":{"id":"940GZZLUWHM","lat":51.528136,"lng":0.005055,"type":"station","name":"West Ham","lines":["jubilee","district","hammersmith-city"]},"940GZZLUWHP":{"id":"940GZZLUWHP","lat":51.546638,"lng":-0.191059,"type":"station","name":"West Hampstead","lines":["jubilee"]},"940GZZLUWHW":{"id":"940GZZLUWHW","lat":51.57971,"lng":-0.3534,"type":"station","name":"West Harrow","lines":["metropolitan"]},"940GZZLUWIG":{"id":"940GZZLUWIG","lat":51.549146,"lng":-0.221537,"type":"station","name":"Willesden Green","lines":["jubilee","metropolitan"]},"940GZZLUWIM":{"id":"940GZZLUWIM","lat":51.421207,"lng":-0.206573,"type":"station","name":"Wimbledon","lines":["district"]},"940GZZLUWIP":{"id":"940GZZLUWIP","lat":51.434573,"lng":-0.199719,"type":"station","name":"Wimbledon Park","lines":["district"]},"940GZZLUWJN":{"id":"940GZZLUWJN","lat":51.532259,"lng":-0.244283,"type":"station","name":"Willesden Junction","lines":["bakerloo"]},"940GZZLUWKA":{"id":"940GZZLUWKA","lat":51.523263,"lng":-0.183783,"type":"station","name":"Warwick Avenue","lines":["bakerloo"]},"940GZZLUWKN":{"id":"940GZZLUWKN","lat":51.490459,"lng":-0.206636,"type":"station","name":"West Kensington","lines":["district"]},"940GZZLUWLA":{"id":"940GZZLUWLA","lat":51.509669,"lng":-0.22453,"type":"station","name":"Wood Lane","lines":["circle","hammersmith-city"]},"940GZZLUWLO":{"id":"940GZZLUWLO","lat":51.503299,"lng":-0.11478,"type":"station","name":"Waterloo","lines":["waterloo-city","northern","jubilee","bakerloo"]},"940GZZLUWOF":{"id":"940GZZLUWOF","lat":51.606899,"lng":0.03397,"type":"station","name":"Woodford","lines":["central"]},"940GZZLUWOG":{"id":"940GZZLUWOG","lat":51.597479,"lng":-0.109886,"type":"station","name":"Wood Green","lines":["piccadilly"]},"940GZZLUWOP":{"id":"940GZZLUWOP","lat":51.618014,"lng":-0.18542,"type":"station","name":"Woodside Park","lines":["northern"]},"940GZZLUWPL":{"id":"940GZZLUWPL","lat":51.519518,"lng":-0.059971,"type":"station","name":"Whitechapel","lines":["hammersmith-city","district"]},"940GZZLUWRP":{"id":"940GZZLUWRP","lat":51.569688,"lng":-0.437886,"type":"station","name":"West Ruislip","lines":["central"]},"940GZZLUWRR":{"id":"940GZZLUWRR","lat":51.524951,"lng":-0.138321,"type":"station","name":"Warren Street","lines":["northern","victoria"]},"940GZZLUWSD":{"id":"940GZZLUWSD","lat":51.575501,"lng":0.028527,"type":"station","name":"Wanstead","lines":["central"]},"940GZZLUWSM":{"id":"940GZZLUWSM","lat":51.50132,"lng":-0.124861,"type":"station","name":"Westminster","lines":["jubilee","district","circle"]},"940GZZLUWSP":{"id":"940GZZLUWSP","lat":51.52111,"lng":-0.201065,"type":"station","name":"Westbourne Park","lines":["circle","hammersmith-city"]},"940GZZLUWTA":{"id":"940GZZLUWTA","lat":51.518001,"lng":-0.28098,"type":"station","name":"West Acton","lines":["central"]},"940GZZLUWWL":{"id":"940GZZLUWWL","lat":51.582965,"lng":-0.019885,"type":"station","name":"Walthamstow Central","lines":["victoria"]},"940GZZLUWYC":{"id":"940GZZLUWYC","lat":51.552304,"lng":-0.296852,"type":"station","name":"Wembley Central","lines":["bakerloo"]},"940GZZLUWYP":{"id":"940GZZLUWYP","lat":51.563198,"lng":-0.279262,"type":"station","name":"Wembley Park","lines":["jubilee","metropolitan"]},"940GZZNEUGST":{"id":"940GZZNEUGST","lat":51.479912,"lng":-0.128476,"type":"station","name":"Nine Elms","lines":["northern"]},"HUBBAL":{"id":"HUBBAL","lat":51.443259,"lng":-0.152707,"type":"station","name":"Balham","lines":["southern","northern"]},"HUBBAN":{"id":"HUBBAN","lat":51.513395,"lng":-0.089095,"type":"station","name":"Bank","lines":["northern","n8","n242","n25","n26","n550","central","21","26","8","waterloo-city","43","25","141","n551","133","dlr","n21"]},"HUBBDS":{"id":"HUBBDS","lat":51.513362,"lng":-0.148795,"type":"station","name":"Bond Street","lines":["elizabeth","jubilee","central"]},"HUBBFR":{"id":"HUBBFR","lat":51.509613,"lng":-0.104166,"type":"station","name":"Blackfriars","lines":["40","n89","63","n63","thameslink","4","southeastern","district","circle"]},"HUBBHO":{"id":"HUBBHO","lat":51.586768,"lng":-0.041185,"type":"station","name":"Blackhorse Road","lines":["suffragette","victoria"]},"HUBBKG":{"id":"HUBBKG","lat":51.539413,"lng":0.080988,"type":"station","name":"Barking","lines":["c2c","suffragette","district","hammersmith-city"]},"HUBBRX":{"id":"HUBBRX","lat":51.462961,"lng":-0.114531,"type":"station","name":"Brixton","lines":["southeastern","victoria"]},"HUBCAN":{"id":"HUBCAN","lat":51.514029,"lng":0.008025,"type":"station","name":"Canning Town","lines":["jubilee","dlr"]},"HUBCAW":{"id":"HUBCAW","lat":51.503734,"lng":-0.019121,"type":"station","name":"Canary Wharf","lines":["jubilee","elizabeth","277","dlr","n550","n277","d7","135"]},"HUBCHX":{"id":"HUBCHX","lat":51.507819,"lng":-0.126137,"type":"station","name":"Charing Cross","lines":["176","n199","n21","n44","n343","southeastern","n87","n91","n155","bakerloo","26","91","139","n26","n89","northern","87"]},"HUBCLW":{"id":"HUBCLW","lat":51.654249,"lng":-0.518312,"type":"station","name":"Chorleywood","lines":["metropolitan","chiltern-railways"]},"HUBCST":{"id":"HUBCST","lat":51.511451,"lng":-0.090357,"type":"station","name":"Cannon Street","lines":["district","circle","southeastern"]},"HUBEAL":{"id":"HUBEAL","lat":51.514993,"lng":-0.302131,"type":"station","name":"Ealing Broadway","lines":["226","district","elizabeth","e9","great-western-railway","central","e1","e10","112"]},"HUBEPH":{"id":"HUBEPH","lat":51.494505,"lng":-0.099185,"type":"station","name":"Elephant & Castle","lines":["n63","453","bl1","bakerloo","thameslink","southeastern","n53","1","415","363","172","188","n1","53","63","northern"]},"HUBEUS":{"id":"HUBEUS","lat":51.527365,"lng":-0.132754,"type":"station","name":"Euston","lines":["68","91","west-midlands-trains","n20","northern","253","30","1","lioness","n253","n91","n5","victoria","avanti-west-coast"]},"HUBFPK":{"id":"HUBFPK","lat":51.564778,"lng":-0.105876,"type":"station","name":"Finsbury Park","lines":["4","victoria","thameslink","236","29","310","n29","piccadilly","n19","n253","n279","253","great-northern","153","259","19","106","254"]},"HUBGFD":{"id":"HUBGFD","lat":51.542657,"lng":-0.345789,"type":"station","name":"Greenford","lines":["great-western-railway","central","395"]},"HUBGUN":{"id":"HUBGUN","lat":51.491745,"lng":-0.275276,"type":"station","name":"Gunnersbury","lines":["district","mildmay"]},"HUBH13":{"id":"HUBH13","lat":51.471618,"lng":-0.454037,"type":"station","name":"Heathrow Terminals 2 & 3","lines":["sl9","sl7","heathrow-express","105","u3","n140","278","a10","elizabeth","piccadilly","n9","111","285"]},"HUBHDN":{"id":"HUBHDN","lat":51.536305,"lng":-0.257774,"type":"station","name":"Harlesden","lines":["lioness","bakerloo"]},"HUBHHY":{"id":"HUBHHY","lat":51.546269,"lng":-0.103538,"type":"station","name":"Highbury & Islington","lines":["great-northern","mildmay","victoria","windrush"]},"HUBHMS":{"id":"HUBHMS","lat":51.492304,"lng":-0.223619,"type":"station","name":"Hammersmith","lines":["220","211","n72","295","h91","9","190","72","533","n33","n27","110","27","hammersmith-city","district","circle","n11","267","218","306","n97","n9","n266","piccadilly"]},"HUBHOH":{"id":"HUBHOH","lat":51.579197,"lng":-0.337226,"type":"station","name":"Harrow-on-the-Hill","lines":["n18","h11","h19","182","223","140","395","483","metropolitan","sl9","340","h9","chiltern-railways","640","n140","h10","h18","258","sl10","h17","114","183","h14","186"]},"HUBHRW":{"id":"HUBHRW","lat":51.592216,"lng":-0.334896,"type":"station","name":"Harrow & Wealdstone","lines":["west-midlands-trains","lioness","bakerloo","southern"]},"HUBHX4":{"id":"HUBHX4","lat":51.458837,"lng":-0.446419,"type":"station","name":"Heathrow Airport Terminal 4","lines":["piccadilly","elizabeth"]},"HUBHX5":{"id":"HUBHX5","lat":51.471569,"lng":-0.489556,"type":"station","name":"Heathrow Airport Terminal 5","lines":["elizabeth","piccadilly","n9","423","heathrow-express","490","482","350"]},"HUBKGX":{"id":"HUBKGX","lat":51.531683,"lng":-0.123538,"type":"station","name":"King's Cross & St Pancras International","lines":["30","great-northern","73","hull-trains","northern","17","390","46","63","east-midlands-railway","214","91","259","metropolitan","n73","grand-central","hammersmith-city","circle","476","n205","n63","london-north-eastern-railway","piccadilly","victoria","thameslink","205","lumo","n91","southeastern"]},"HUBKNL":{"id":"HUBKNL","lat":51.530545,"lng":-0.22505,"type":"station","name":"Kensal Green","lines":["bakerloo","lioness"]},"HUBKNT":{"id":"HUBKNT","lat":51.581786,"lng":-0.316946,"type":"station","name":"Kenton","lines":["lioness","bakerloo"]},"HUBKPA":{"id":"HUBKPA","lat":51.496156,"lng":-0.210502,"type":"station","name":"Kensington (Olympia)","lines":["mildmay","28","n28","southern","district","306"]},"HUBKTN":{"id":"HUBKTN","lat":51.550409,"lng":-0.140545,"type":"station","name":"Kentish Town","lines":["thameslink","northern","east-midlands-railway"]},"HUBKWG":{"id":"HUBKWG","lat":51.477069,"lng":-0.285148,"type":"station","name":"Kew Gardens","lines":["district","mildmay"]},"HUBLBG":{"id":"HUBLBG","lat":51.505881,"lng":-0.086807,"type":"station","name":"London Bridge","lines":["n21","133","n199","35","thameslink","141","southeastern","344","southern","n343","n133","43","jubilee","388","149","northern","17","47","21"]},"HUBLST":{"id":"HUBLST","lat":51.51794,"lng":-0.083162,"type":"station","name":"Liverpool Street","lines":["greater-anglia","central","metropolitan","c2c","weaver","elizabeth","circle","hammersmith-city"]},"HUBMYB":{"id":"HUBMYB","lat":51.521602,"lng":-0.163013,"type":"station","name":"Marylebone","lines":["bakerloo","chiltern-railways"]},"HUBNGW":{"id":"HUBNGW","lat":51.500474,"lng":0.004295,"type":"station","name":"North Greenwich","lines":["jubilee","132","108","sl11","n472","422","188","161","129","335","sl4","london-cable-car","486","180"]},"HUBNWB":{"id":"HUBNWB","lat":51.56258,"lng":-0.303992,"type":"station","name":"North Wembley","lines":["lioness","bakerloo"]},"HUBOLD":{"id":"HUBOLD","lat":51.526065,"lng":-0.088193,"type":"station","name":"Old Street","lines":["great-northern","northern"]},"HUBPAD":{"id":"HUBPAD","lat":51.516981,"lng":-0.17616,"type":"station","name":"Paddington","lines":["7","23","n27","heathrow-express","36","bakerloo","elizabeth","16","great-western-railway","hammersmith-city","district","circle","27","n7","n205"]},"HUBQPW":{"id":"HUBQPW","lat":51.534443,"lng":-0.204882,"type":"station","name":"Queen's Park","lines":["lioness","bakerloo","206"]},"HUBRIC":{"id":"HUBRIC","lat":51.640247,"lng":-0.473273,"type":"station","name":"Rickmansworth","lines":["metropolitan","chiltern-railways"]},"HUBRMD":{"id":"HUBRMD","lat":51.463152,"lng":-0.301448,"type":"station","name":"Richmond","lines":["district","mildmay","south-western-railway"]},"HUBSBP":{"id":"HUBSBP","lat":51.544041,"lng":-0.275859,"type":"station","name":"Stonebridge Park","lines":["bakerloo","lioness"]},"HUBSOK":{"id":"HUBSOK","lat":51.570229,"lng":-0.308448,"type":"station","name":"South Kenton","lines":["lioness","bakerloo"]},"HUBSPB":{"id":"HUBSPB","lat":51.504791,"lng":-0.219213,"type":"station","name":"Shepherd's Bush","lines":["mildmay","central","southern"]},"HUBSRA":{"id":"HUBSRA","lat":51.541508,"lng":-0.00241,"type":"station","name":"Stratford","lines":["257","104","262","308","central","241","c2c","mildmay","d8","388","69","n25","greater-anglia","339","n8","86","276","25","158","238","473","678","425","jubilee","elizabeth","97","n86","108","n205","dlr"]},"HUBSRU":{"id":"HUBSRU","lat":51.556893,"lng":-0.399076,"type":"station","name":"South Ruislip","lines":["chiltern-railways","central"]},"HUBSVS":{"id":"HUBSVS","lat":51.582931,"lng":-0.073306,"type":"station","name":"Seven Sisters","lines":["476","349","victoria","weaver","76","n73","318","greater-anglia","149","243"]},"HUBTCR":{"id":"HUBTCR","lat":51.516018,"lng":-0.130888,"type":"station","name":"Tottenham Court Road","lines":["northern","central","elizabeth"]},"HUBTOM":{"id":"HUBTOM","lat":51.588315,"lng":-0.06024,"type":"station","name":"Tottenham Hale","lines":["victoria","192","greater-anglia"]},"HUBUPM":{"id":"HUBUPM","lat":51.558659,"lng":0.250855,"type":"station","name":"Upminster","lines":["c2c","646","652","346","liberty","370","district","248"]},"HUBVIC":{"id":"HUBVIC","lat":51.495812,"lng":-0.143826,"type":"station","name":"Victoria","lines":["52","390","38","district","circle","gatwick-express","southern","southeastern","3","n38","thameslink","victoria"]},"HUBVXH":{"id":"HUBVXH","lat":51.485739,"lng":-0.123303,"type":"station","name":"Vauxhall","lines":["south-western-railway","victoria"]},"HUBWAT":{"id":"HUBWAT","lat":51.504269,"lng":-0.113356,"type":"station","name":"Waterloo","lines":["jubilee","381","bl1","11","n381","bakerloo","77","341","1","176","c10","south-western-railway","northern","243","139","n68","n171","waterloo-city","59","68","188","172","n1","sl6","76"]},"HUBWBP":{"id":"HUBWBP","lat":51.487168,"lng":-0.195593,"type":"station","name":"West Brompton","lines":["district","southern","mildmay"]},"HUBWEH":{"id":"HUBWEH","lat":51.528178,"lng":0.004997,"type":"station","name":"West Ham","lines":["c2c","jubilee","district","hammersmith-city","dlr"]},"HUBWHC":{"id":"HUBWHC","lat":51.582948,"lng":-0.019842,"type":"station","name":"Walthamstow Central","lines":["victoria","weaver"]},"HUBWHD":{"id":"HUBWHD","lat":51.547533,"lng":-0.191357,"type":"station","name":"West Hampstead","lines":["thameslink","jubilee","mildmay"]},"HUBWIJ":{"id":"HUBWIJ","lat":51.532556,"lng":-0.243006,"type":"station","name":"Willesden Junction","lines":["mildmay","bakerloo","lioness"]},"HUBWIM":{"id":"HUBWIM","lat":51.421505,"lng":-0.206444,"type":"station","name":"Wimbledon","lines":["south-western-railway","93","tram","156","district","493","thameslink","n87","200"]},"HUBWMB":{"id":"HUBWMB","lat":51.55232,"lng":-0.296642,"type":"station","name":"Wembley Central","lines":["southern","bakerloo","lioness"]},"HUBWRU":{"id":"HUBWRU","lat":51.569721,"lng":-0.437816,"type":"station","name":"West Ruislip","lines":["central","chiltern-railways"]},"HUBWSM":{"id":"HUBWSM","lat":51.501603,"lng":-0.125984,"type":"station","name":"Westminster","lines":["circle","district","n11","12","159","n44","88","n53","453","jubilee","n381","n155","n87","n136","26","24","87","n26","n109","n3"]},"HUBZCW":{"id":"HUBZCW","lat":51.498053,"lng":-0.049667,"type":"station","name":"Canada Water","lines":["p12","225","199","47","188","n381","jubilee","381","n199","1","windrush","c10"]},"HUBZFD":{"id":"HUBZFD","lat":51.520214,"lng":-0.105054,"type":"station","name":"Farringdon","lines":["elizabeth","thameslink","circle","hammersmith-city","metropolitan"]},"HUBZMG":{"id":"HUBZMG","lat":51.518338,"lng":-0.088627,"type":"station","name":"Moorgate","lines":["northern","great-northern","metropolitan","hammersmith-city","circle"]},"HUBZWL":{"id":"HUBZWL","lat":51.519498,"lng":-0.059858,"type":"station","name":"Whitechapel","lines":["elizabeth","hammersmith-city","district","windrush"]},"910GACTNCTL":{"id":"910GACTNCTL","lat":51.508716,"lng":-0.262971,"type":"station","name":"Acton Central","lines":["mildmay"]},"910GANERLEY":{"id":"910GANERLEY","lat":51.412153,"lng":-0.065886,"type":"station","name":"Anerley","lines":["windrush","southern"]},"910GBARKING":{"id":"910GBARKING","lat":51.539495,"lng":0.080903,"type":"station","name":"Barking","lines":["suffragette","c2c"]},"910GBARKRIV":{"id":"910GBARKRIV","lat":51.51953,"lng":0.11596,"type":"station","name":"Barking Riverside","lines":["suffragette"]},"910GBHILLPK":{"id":"910GBHILLPK","lat":51.641519,"lng":-0.069221,"type":"station","name":"Bush Hill Park","lines":["weaver","377"]},"910GBLCHSRD":{"id":"910GBLCHSRD","lat":51.586605,"lng":-0.041236,"type":"station","name":"Blackhorse Road","lines":["suffragette"]},"910GBRBY":{"id":"910GBRBY","lat":51.545166,"lng":-0.202309,"type":"station","name":"Brondesbury","lines":["mildmay"]},"910GBRBYPK":{"id":"910GBRBYPK","lat":51.540734,"lng":-0.210054,"type":"station","name":"Brondesbury Park","lines":["mildmay"]},"910GBROCKLY":{"id":"910GBROCKLY","lat":51.464649,"lng":-0.037537,"type":"station","name":"Brockley","lines":["windrush","southern"]},"910GBRUCGRV":{"id":"910GBRUCGRV","lat":51.593959,"lng":-0.069867,"type":"station","name":"Bruce Grove","lines":["weaver","greater-anglia"]},"910GBTHNLGR":{"id":"910GBTHNLGR","lat":51.523917,"lng":-0.059568,"type":"station","name":"Bethnal Green","lines":["weaver","greater-anglia"]},"910GBUSHEY":{"id":"910GBUSHEY","lat":51.645582,"lng":-0.384749,"type":"station","name":"Bushey","lines":["west-midlands-trains"]},"910GBUSHYDC":{"id":"910GBUSHYDC","lat":51.645877,"lng":-0.385302,"type":"station","name":"Bushey","lines":["lioness"]},"910GCAMHTH":{"id":"910GCAMHTH","lat":51.531973,"lng":-0.057279,"type":"station","name":"Cambridge Heath (London)","lines":["weaver","greater-anglia"]},"910GCHINGFD":{"id":"910GCHINGFD","lat":51.633087,"lng":0.009897,"type":"station","name":"Chingford","lines":["weaver"]},"910GCLAPTON":{"id":"910GCLAPTON","lat":51.561644,"lng":-0.057025,"type":"station","name":"Clapton","lines":["weaver","greater-anglia"]},"910GCLDNNRB":{"id":"910GCLDNNRB","lat":51.543041,"lng":-0.116729,"type":"station","name":"Caledonian Road & Barnsbury","lines":["mildmay"]},"910GCLPHHS":{"id":"910GCLPHHS","lat":51.465481,"lng":-0.132522,"type":"station","name":"Clapham High Street","lines":["windrush"]},"910GCLPHMJ1":{"id":"910GCLPHMJ1","lat":51.464187,"lng":-0.170221,"type":"station","name":"Clapham Junction","lines":["windrush","mildmay"]},"910GCLPHMJC":{"id":"910GCLPHMJC","lat":51.464188,"lng":-0.170293,"type":"station","name":"Clapham Junction","lines":["southern","mildmay","south-western-railway"]},"910GCMDNRD":{"id":"910GCMDNRD","lat":51.541791,"lng":-0.138701,"type":"station","name":"Camden Road","lines":["mildmay"]},"910GCNDAW":{"id":"910GCNDAW","lat":51.49799,"lng":-0.04972,"type":"station","name":"Canada Water","lines":["windrush"]},"910GCNNB":{"id":"910GCNNB","lat":51.548732,"lng":-0.092191,"type":"station","name":"Canonbury","lines":["mildmay","windrush","236"]},"910GCROUCHH":{"id":"910GCROUCHH","lat":51.571302,"lng":-0.117149,"type":"station","name":"Crouch Hill","lines":["suffragette"]},"910GCRPNDPK":{"id":"910GCRPNDPK","lat":51.628351,"lng":-0.385939,"type":"station","name":"Carpenders Park","lines":["lioness"]},"910GCRYSTLP":{"id":"910GCRYSTLP","lat":51.418109,"lng":-0.07261,"type":"station","name":"Crystal Palace","lines":["southern","windrush"]},"910GCSEAH":{"id":"910GCSEAH","lat":51.474949,"lng":-0.182823,"type":"station","name":"Imperial Wharf","lines":["mildmay","southern"]},"910GDALS":{"id":"910GDALS","lat":51.546116,"lng":-0.075137,"type":"station","name":"Dalston Junction","lines":["76","243","149","n242","242","67","277","488","windrush"]},"910GDALSKLD":{"id":"910GDALSKLD","lat":51.548148,"lng":-0.075701,"type":"station","name":"Dalston Kingsland","lines":["mildmay"]},"910GDENMRKH":{"id":"910GDENMRKH","lat":51.468203,"lng":-0.089361,"type":"station","name":"Denmark Hill","lines":["thameslink","southeastern","windrush"]},"910GEDMNGRN":{"id":"910GEDMNGRN","lat":51.624929,"lng":-0.061112,"type":"station","name":"Edmonton Green","lines":["weaver","greater-anglia"]},"910GEMRSPKH":{"id":"910GEMRSPKH","lat":51.568642,"lng":0.220113,"type":"station","name":"Emerson Park","lines":["liberty"]},"910GENFLDTN":{"id":"910GENFLDTN","lat":51.652026,"lng":-0.079328,"type":"station","name":"Enfield Town","lines":["weaver"]},"910GEUSTON":{"id":"910GEUSTON","lat":51.528136,"lng":-0.133924,"type":"station","name":"London Euston","lines":["avanti-west-coast","lioness","west-midlands-trains"]},"910GFNCHLYR":{"id":"910GFNCHLYR","lat":51.550266,"lng":-0.183141,"type":"station","name":"Finchley Road & Frognal","lines":["mildmay"]},"910GFORESTH":{"id":"910GFORESTH","lat":51.43928,"lng":-0.053157,"type":"station","name":"Forest Hill","lines":["windrush","southern"]},"910GGNRSBRY":{"id":"910GGNRSBRY","lat":51.491678,"lng":-0.275286,"type":"station","name":"Gunnersbury","lines":["mildmay"]},"910GGOSPLOK":{"id":"910GGOSPLOK","lat":51.555335,"lng":-0.15077,"type":"station","name":"Gospel Oak","lines":["mildmay","suffragette"]},"910GHACKNYC":{"id":"910GHACKNYC","lat":51.547105,"lng":-0.056058,"type":"station","name":"Hackney Central","lines":["mildmay"]},"910GHACKNYW":{"id":"910GHACKNYW","lat":51.54341,"lng":-0.02492,"type":"station","name":"Hackney Wick","lines":["mildmay"]},"910GHAGGERS":{"id":"910GHAGGERS","lat":51.538705,"lng":-0.075666,"type":"station","name":"Haggerston","lines":["windrush"]},"910GHAKNYNM":{"id":"910GHAKNYNM","lat":51.548757,"lng":-0.060819,"type":"station","name":"Hackney Downs","lines":["greater-anglia","weaver"]},"910GHARLSDN":{"id":"910GHARLSDN","lat":51.536289,"lng":-0.257667,"type":"station","name":"Harlesden","lines":["lioness"]},"910GHEDSTNL":{"id":"910GHEDSTNL","lat":51.602649,"lng":-0.35722,"type":"station","name":"Headstone Lane","lines":["lioness"]},"910GHGHI":{"id":"910GHGHI","lat":51.546177,"lng":-0.103764,"type":"station","name":"Highbury & Islington","lines":["great-northern","mildmay","windrush"]},"910GHGHMSPK":{"id":"910GHGHMSPK","lat":51.60835,"lng":-0.000222,"type":"station","name":"Highams Park","lines":["weaver"]},"910GHMPSTDH":{"id":"910GHMPSTDH","lat":51.55521,"lng":-0.165705,"type":"station","name":"Hampstead Heath","lines":["mildmay"]},"910GHOMRTON":{"id":"910GHOMRTON","lat":51.547012,"lng":-0.04236,"type":"station","name":"Homerton","lines":["mildmay"]},"910GHONROPK":{"id":"910GHONROPK","lat":51.449989,"lng":-0.045505,"type":"station","name":"Honor Oak Park","lines":["southern","windrush"]},"910GHOXTON":{"id":"910GHOXTON","lat":51.531512,"lng":-0.075681,"type":"station","name":"Hoxton","lines":["windrush"]},"910GHRGYGL":{"id":"910GHRGYGL","lat":51.577182,"lng":-0.098144,"type":"station","name":"Harringay Green Lanes","lines":["suffragette"]},"910GHROW":{"id":"910GHROW","lat":51.592169,"lng":-0.334571,"type":"station","name":"Harrow & Wealdstone","lines":["west-midlands-trains","lioness","southern"]},"910GHTCHEND":{"id":"910GHTCHEND","lat":51.609417,"lng":-0.368601,"type":"station","name":"Hatch End","lines":["lioness"]},"910GKENOLYM":{"id":"910GKENOLYM","lat":51.497899,"lng":-0.210364,"type":"station","name":"Kensington (Olympia)","lines":["mildmay","southern"]},"910GKENR":{"id":"910GKENR","lat":51.534554,"lng":-0.219957,"type":"station","name":"Kensal Rise","lines":["mildmay"]},"910GKENSLG":{"id":"910GKENSLG","lat":51.53054,"lng":-0.225088,"type":"station","name":"Kensal Green","lines":["lioness"]},"910GKEWGRDN":{"id":"910GKEWGRDN","lat":51.477073,"lng":-0.285054,"type":"station","name":"Kew Gardens","lines":["mildmay"]},"910GKLBRNHR":{"id":"910GKLBRNHR","lat":51.537277,"lng":-0.192237,"type":"station","name":"Kilburn High Road","lines":["lioness"]},"910GKNTSHTW":{"id":"910GKNTSHTW","lat":51.546548,"lng":-0.146655,"type":"station","name":"Kentish Town West","lines":["mildmay"]},"910GKTON":{"id":"910GKTON","lat":51.581802,"lng":-0.316981,"type":"station","name":"Kenton","lines":["lioness"]},"910GLEYTNMR":{"id":"910GLEYTNMR","lat":51.569725,"lng":-0.008051,"type":"station","name":"Leyton Midland Road","lines":["suffragette"]},"910GLIVST":{"id":"910GLIVST","lat":51.517991,"lng":-0.081426,"type":"station","name":"London Liverpool Street","lines":["greater-anglia","c2c","weaver","elizabeth"]},"910GLONFLDS":{"id":"910GLONFLDS","lat":51.541153,"lng":-0.057753,"type":"station","name":"London Fields","lines":["greater-anglia","weaver"]},"910GLYTNSHR":{"id":"910GLYTNSHR","lat":51.563554,"lng":0.008416,"type":"station","name":"Leytonstone High Road","lines":["suffragette"]},"910GNEWXGTE":{"id":"910GNEWXGTE","lat":51.475128,"lng":-0.040399,"type":"station","name":"New Cross Gate","lines":["southern","windrush"]},"910GNORWDJ":{"id":"910GNORWDJ","lat":51.397019,"lng":-0.075221,"type":"station","name":"Norwood Junction","lines":["windrush","southern","southeastern","thameslink"]},"910GNWCRELL":{"id":"910GNWCRELL","lat":51.476344,"lng":-0.032441,"type":"station","name":"New Cross ELL","lines":["southeastern","windrush"]},"910GNWEMBLY":{"id":"910GNWEMBLY","lat":51.562596,"lng":-0.303984,"type":"station","name":"North Wembley","lines":["lioness"]},"910GPCKHMQD":{"id":"910GPCKHMQD","lat":51.473566,"lng":-0.057313,"type":"station","name":"Queens Road Peckham","lines":["windrush","southern"]},"910GPCKHMRY":{"id":"910GPCKHMRY","lat":51.470034,"lng":-0.069414,"type":"station","name":"Peckham Rye","lines":["windrush","southern","southeastern","thameslink"]},"910GPENEW":{"id":"910GPENEW","lat":51.417555,"lng":-0.06084,"type":"station","name":"Penge West","lines":["southern","windrush"]},"910GQPRK":{"id":"910GQPRK","lat":51.533966,"lng":-0.204985,"type":"station","name":"Queens Park (London)","lines":["lioness"]},"910GRCTRYRD":{"id":"910GRCTRYRD","lat":51.558502,"lng":-0.068267,"type":"station","name":"Rectory Road","lines":["greater-anglia","weaver"]},"910GRICHMND":{"id":"910GRICHMND","lat":51.463061,"lng":-0.301558,"type":"station","name":"Richmond (London)","lines":["mildmay","south-western-railway"]},"910GROMFORD":{"id":"910GROMFORD","lat":51.574829,"lng":0.183237,"type":"station","name":"Romford","lines":["greater-anglia","liberty","elizabeth"]},"910GRTHERHI":{"id":"910GRTHERHI","lat":51.500817,"lng":-0.052048,"type":"station","name":"Rotherhithe","lines":["windrush"]},"910GSACTON":{"id":"910GSACTON","lat":51.499695,"lng":-0.270157,"type":"station","name":"South Acton","lines":["mildmay"]},"910GSBURY":{"id":"910GSBURY","lat":51.648705,"lng":-0.052437,"type":"station","name":"Southbury","lines":["greater-anglia","weaver"]},"910GSEVNSIS":{"id":"910GSEVNSIS","lat":51.582268,"lng":-0.07527,"type":"station","name":"Seven Sisters","lines":["greater-anglia","weaver"]},"910GSHADWEL":{"id":"910GSHADWEL","lat":51.511284,"lng":-0.056934,"type":"station","name":"Shadwell","lines":["windrush"]},"910GSHMPSTD":{"id":"910GSHMPSTD","lat":51.541432,"lng":-0.178878,"type":"station","name":"South Hampstead","lines":["lioness"]},"910GSHPDSB":{"id":"910GSHPDSB","lat":51.505285,"lng":-0.217654,"type":"station","name":"Shepherds Bush","lines":["mildmay","southern"]},"910GSHRDHST":{"id":"910GSHRDHST","lat":51.523375,"lng":-0.075246,"type":"station","name":"Shoreditch High Street","lines":["windrush"]},"910GSIVRST":{"id":"910GSIVRST","lat":51.614688,"lng":-0.06724,"type":"station","name":"Silver Street","lines":["greater-anglia","weaver"]},"910GSKENTON":{"id":"910GSKENTON","lat":51.570214,"lng":-0.308462,"type":"station","name":"South Kenton","lines":["lioness"]},"910GSTFD":{"id":"910GSTFD","lat":51.541895,"lng":-0.003397,"type":"station","name":"Stratford (London)","lines":["elizabeth","greater-anglia","mildmay","c2c"]},"910GSTJMSST":{"id":"910GSTJMSST","lat":51.580981,"lng":-0.032918,"type":"station","name":"St James Street (London)","lines":["weaver"]},"910GSTKNWNG":{"id":"910GSTKNWNG","lat":51.565233,"lng":-0.072887,"type":"station","name":"Stoke Newington","lines":["greater-anglia","weaver"]},"910GSTMFDHL":{"id":"910GSTMFDHL","lat":51.574467,"lng":-0.076682,"type":"station","name":"Stamford Hill","lines":["weaver","greater-anglia"]},"910GSTNBGPK":{"id":"910GSTNBGPK","lat":51.544111,"lng":-0.275828,"type":"station","name":"Stonebridge Park","lines":["lioness"]},"910GSTOTNHM":{"id":"910GSTOTNHM","lat":51.580372,"lng":-0.072103,"type":"station","name":"South Tottenham","lines":["suffragette"]},"910GSURREYQ":{"id":"910GSURREYQ","lat":51.493196,"lng":-0.047519,"type":"station","name":"Surrey Quays","lines":["windrush"]},"910GSYDENHM":{"id":"910GSYDENHM","lat":51.427248,"lng":-0.054244,"type":"station","name":"Sydenham","lines":["windrush","southern"]},"910GTHBLDSG":{"id":"910GTHBLDSG","lat":51.692457,"lng":-0.034831,"type":"station","name":"Theobalds Grove","lines":["greater-anglia","weaver"]},"910GTURKYST":{"id":"910GTURKYST","lat":51.672628,"lng":-0.047217,"type":"station","name":"Turkey Street","lines":["greater-anglia","weaver"]},"910GUPMNSTR":{"id":"910GUPMNSTR","lat":51.559018,"lng":0.25088,"type":"station","name":"Upminster","lines":["liberty","c2c"]},"910GUPRHLWY":{"id":"910GUPRHLWY","lat":51.563631,"lng":-0.129513,"type":"station","name":"Upper Holloway","lines":["suffragette"]},"910GWAPPING":{"id":"910GWAPPING","lat":51.504388,"lng":-0.055931,"type":"station","name":"Wapping","lines":["windrush"]},"910GWATFDHS":{"id":"910GWATFDHS","lat":51.652655,"lng":-0.391711,"type":"station","name":"Watford High Street","lines":["lioness"]},"910GWATFDJ":{"id":"910GWATFDJ","lat":51.663908,"lng":-0.395925,"type":"station","name":"Watford Junction","lines":["west-midlands-trains","southern","avanti-west-coast"]},"910GWATFJDC":{"id":"910GWATFJDC","lat":51.663529,"lng":-0.396517,"type":"station","name":"Watford Junction","lines":["lioness"]},"910GWBRMPTN":{"id":"910GWBRMPTN","lat":51.487061,"lng":-0.195593,"type":"station","name":"West Brompton","lines":["southern","mildmay"]},"910GWCHAPEL":{"id":"910GWCHAPEL","lat":51.519469,"lng":-0.059757,"type":"station","name":"Whitechapel","lines":["windrush"]},"910GWCROYDN":{"id":"910GWCROYDN","lat":51.378428,"lng":-0.102585,"type":"station","name":"West Croydon","lines":["windrush","southern"]},"910GWDGRNPK":{"id":"910GWDGRNPK","lat":51.549264,"lng":0.044423,"type":"station","name":"Woodgrange Park","lines":["suffragette"]},"910GWDST":{"id":"910GWDST","lat":51.58658,"lng":-0.002405,"type":"station","name":"Wood Street","lines":["weaver"]},"910GWHHRTLA":{"id":"910GWHHRTLA","lat":51.605037,"lng":-0.070914,"type":"station","name":"White Hart Lane","lines":["greater-anglia","weaver"]},"910GWHMDSTD":{"id":"910GWHMDSTD","lat":51.547468,"lng":-0.191185,"type":"station","name":"West Hampstead","lines":["mildmay"]},"910GWLSDJHL":{"id":"910GWLSDJHL","lat":51.532497,"lng":-0.244548,"type":"station","name":"Willesden Junction","lines":["mildmay","lioness"]},"910GWLTHQRD":{"id":"910GWLTHQRD","lat":51.581503,"lng":-0.023846,"type":"station","name":"Walthamstow Queens Road","lines":["suffragette"]},"910GWLTWCEN":{"id":"910GWLTWCEN","lat":51.582919,"lng":-0.019815,"type":"station","name":"Walthamstow Central","lines":["weaver"]},"910GWMBY":{"id":"910GWMBY","lat":51.552325,"lng":-0.296433,"type":"station","name":"Wembley Central","lines":["southern","lioness"]},"910GWNDSWRD":{"id":"910GWNDSWRD","lat":51.470216,"lng":-0.13852,"type":"station","name":"Wandsworth Road","lines":["windrush"]},"910GWNSTDPK":{"id":"910GWNSTDPK","lat":51.551693,"lng":0.026213,"type":"station","name":"Wanstead Park","lines":["suffragette"]},"HUBBSH":{"id":"HUBBSH","lat":51.645582,"lng":-0.384752,"type":"station","name":"Bushey","lines":["lioness","142","258","west-midlands-trains"]},"HUBCLJ":{"id":"HUBCLJ","lat":51.463724,"lng":-0.168997,"type":"station","name":"Clapham Junction","lines":["345","g1","639","mildmay","south-western-railway","n31","295","219","319","37","170","35","77","49","windrush","670","c3","344","39","southern","n19","337"]},"HUBCYP":{"id":"HUBCYP","lat":51.418111,"lng":-0.072605,"type":"station","name":"Crystal Palace","lines":["southern","windrush"]},"HUBIMP":{"id":"HUBIMP","lat":51.47555,"lng":-0.183084,"type":"station","name":"Imperial Wharf","lines":["southern","mildmay"]},"HUBNWD":{"id":"HUBNWD","lat":51.39702,"lng":-0.075216,"type":"station","name":"Norwood Junction","lines":["windrush","thameslink","southeastern","southern"]},"HUBNWX":{"id":"HUBNWX","lat":51.476347,"lng":-0.032427,"type":"station","name":"New Cross","lines":["southeastern","windrush"]},"HUBNXG":{"id":"HUBNXG","lat":51.475132,"lng":-0.040399,"type":"station","name":"New Cross Gate","lines":["southern","windrush"]},"HUBSDE":{"id":"HUBSDE","lat":51.511492,"lng":-0.056782,"type":"station","name":"Shadwell","lines":["windrush","dlr"]},"HUBSYD":{"id":"HUBSYD","lat":51.427375,"lng":-0.055268,"type":"station","name":"Sydenham","lines":["176","197","windrush","202","southern","122"]},"HUBWCY":{"id":"HUBWCY","lat":51.378786,"lng":-0.101939,"type":"station","name":"West Croydon","lines":["southern","367","645","407","75","450","windrush","264","64","194","410","n109","403","250","166","154","tram","109","157","n250","sl7","289","60","sl6","689","198"]},"HUBWFJ":{"id":"HUBWFJ","lat":51.663908,"lng":-0.395928,"type":"station","name":"Watford Junction","lines":["avanti-west-coast","southern","lioness","west-midlands-trains"]},"940GZZDLABR":{"id":"940GZZDLABR","lat":51.531926,"lng":0.003737,"type":"station","name":"Abbey Road","lines":["dlr"]},"940GZZDLALL":{"id":"940GZZDLALL","lat":51.511,"lng":-0.013135,"type":"station","name":"All Saints","lines":["dlr"]},"940GZZDLBEC":{"id":"940GZZDLBEC","lat":51.514362,"lng":0.061453,"type":"station","name":"Beckton","lines":["dlr"]},"940GZZDLBLA":{"id":"940GZZDLBLA","lat":51.507991,"lng":-0.006969,"type":"station","name":"Blackwall","lines":["dlr"]},"940GZZDLBNK":{"id":"940GZZDLBNK","lat":51.513233,"lng":-0.088515,"type":"station","name":"Bank","lines":["dlr"]},"940GZZDLBOW":{"id":"940GZZDLBOW","lat":51.527858,"lng":-0.020936,"type":"station","name":"Bow Church","lines":["dlr"]},"940GZZDLBPK":{"id":"940GZZDLBPK","lat":51.508793,"lng":0.054932,"type":"station","name":"Beckton Park","lines":["dlr"]},"940GZZDLCAN":{"id":"940GZZDLCAN","lat":51.504838,"lng":-0.020997,"type":"station","name":"Canary Wharf","lines":["dlr"]},"940GZZDLCGT":{"id":"940GZZDLCGT","lat":51.514127,"lng":0.008101,"type":"station","name":"Canning Town","lines":["dlr"]},"940GZZDLCLA":{"id":"940GZZDLCLA","lat":51.495728,"lng":-0.014606,"type":"station","name":"Crossharbour","lines":["dlr"]},"940GZZDLCUS":{"id":"940GZZDLCUS","lat":51.509716,"lng":0.026699,"type":"station","name":"Custom House (for ExCel)","lines":["dlr"]},"940GZZDLCUT":{"id":"940GZZDLCUT","lat":51.481671,"lng":-0.01081,"type":"station","name":"Cutty Sark (for Maritime Greenwich)","lines":["dlr"]},"940GZZDLCYP":{"id":"940GZZDLCYP","lat":51.508473,"lng":0.063925,"type":"station","name":"Cyprus","lines":["dlr"]},"940GZZDLDEP":{"id":"940GZZDLDEP","lat":51.474215,"lng":-0.022438,"type":"station","name":"Deptford Bridge","lines":["dlr"]},"940GZZDLDEV":{"id":"940GZZDLDEV","lat":51.522667,"lng":-0.017615,"type":"station","name":"Devons Road","lines":["dlr"]},"940GZZDLEIN":{"id":"940GZZDLEIN","lat":51.509359,"lng":-0.002326,"type":"station","name":"East India","lines":["d3","dlr","n550","sl4"]},"940GZZDLELV":{"id":"940GZZDLELV","lat":51.469074,"lng":-0.016728,"type":"station","name":"Elverson Road","lines":["dlr"]},"940GZZDLGAL":{"id":"940GZZDLGAL","lat":51.508941,"lng":0.071555,"type":"station","name":"Gallions Reach","lines":["dlr"]},"940GZZDLGRE":{"id":"940GZZDLGRE","lat":51.478087,"lng":-0.013673,"type":"station","name":"Greenwich","lines":["dlr"]},"940GZZDLHEQ":{"id":"940GZZDLHEQ","lat":51.503379,"lng":-0.021421,"type":"station","name":"Heron Quays","lines":["dlr"]},"940GZZDLISL":{"id":"940GZZDLISL","lat":51.487811,"lng":-0.010139,"type":"station","name":"Island Gardens","lines":["dlr"]},"940GZZDLKGV":{"id":"940GZZDLKGV","lat":51.502003,"lng":0.062624,"type":"station","name":"King George V","lines":["dlr"]},"940GZZDLLCA":{"id":"940GZZDLLCA","lat":51.503416,"lng":0.048739,"type":"station","name":"London City Airport","lines":["dlr"]},"940GZZDLLDP":{"id":"940GZZDLLDP","lat":51.515172,"lng":-0.01415,"type":"station","name":"Langdon Park","lines":["dlr"]},"940GZZDLLEW":{"id":"940GZZDLLEW","lat":51.464665,"lng":-0.012874,"type":"station","name":"Lewisham","lines":["dlr"]},"940GZZDLLIM":{"id":"940GZZDLLIM","lat":51.512393,"lng":-0.039809,"type":"station","name":"Limehouse","lines":["dlr"]},"940GZZDLMUD":{"id":"940GZZDLMUD","lat":51.490704,"lng":-0.014738,"type":"station","name":"Mudchute","lines":["dlr"]},"940GZZDLPDK":{"id":"940GZZDLPDK","lat":51.502212,"lng":0.032115,"type":"station","name":"Pontoon Dock","lines":["129","241","330","dlr"]},"940GZZDLPOP":{"id":"940GZZDLPOP","lat":51.507744,"lng":-0.017384,"type":"station","name":"Poplar","lines":["dlr"]},"940GZZDLPRE":{"id":"940GZZDLPRE","lat":51.509263,"lng":0.034158,"type":"station","name":"Prince Regent","lines":["dlr"]},"940GZZDLPUD":{"id":"940GZZDLPUD","lat":51.534302,"lng":-0.012755,"type":"station","name":"Pudding Mill Lane","lines":["dlr"]},"940GZZDLRAL":{"id":"940GZZDLRAL","lat":51.508357,"lng":0.045935,"type":"station","name":"Royal Albert","lines":["dlr"]},"940GZZDLRVC":{"id":"940GZZDLRVC","lat":51.509336,"lng":0.018497,"type":"station","name":"Royal Victoria","lines":["dlr"]},"940GZZDLSHA":{"id":"940GZZDLSHA","lat":51.511693,"lng":-0.056643,"type":"station","name":"Shadwell","lines":["dlr"]},"940GZZDLSHS":{"id":"940GZZDLSHS","lat":51.538196,"lng":-0.001078,"type":"station","name":"Stratford High Street","lines":["dlr"]},"940GZZDLSIT":{"id":"940GZZDLSIT","lat":51.545265,"lng":-0.009638,"type":"station","name":"Stratford International","lines":["dlr"]},"940GZZDLSOQ":{"id":"940GZZDLSOQ","lat":51.500053,"lng":-0.016133,"type":"station","name":"South Quay","lines":["dlr"]},"940GZZDLSTD":{"id":"940GZZDLSTD","lat":51.541758,"lng":-0.003287,"type":"station","name":"Stratford","lines":["dlr"]},"940GZZDLSTL":{"id":"940GZZDLSTL","lat":51.520786,"lng":0.004156,"type":"station","name":"Star Lane","lines":["276","323","dlr"]},"940GZZDLTWG":{"id":"940GZZDLTWG","lat":51.510617,"lng":-0.074818,"type":"station","name":"Tower Gateway","lines":["dlr"]},"940GZZDLWFE":{"id":"940GZZDLWFE","lat":51.509431,"lng":-0.02675,"type":"station","name":"Westferry","lines":["dlr"]},"940GZZDLWHM":{"id":"940GZZDLWHM","lat":51.527894,"lng":0.004482,"type":"station","name":"West Ham","lines":["dlr"]},"940GZZDLWIQ":{"id":"940GZZDLWIQ","lat":51.50703,"lng":-0.020311,"type":"station","name":"West India Quay","lines":["dlr"]},"940GZZDLWLA":{"id":"940GZZDLWLA","lat":51.490009,"lng":0.069127,"type":"station","name":"Woolwich Arsenal","lines":["dlr"]},"940GZZDLWSV":{"id":"940GZZDLWSV","lat":51.502838,"lng":0.02246,"type":"station","name":"West Silvertown","lines":["dlr"]},"HUBCUS":{"id":"HUBCUS","lat":51.518757,"lng":0.027418,"type":"station","name":"Custom House","lines":["dlr","elizabeth"]},"HUBCUT":{"id":"HUBCUT","lat":51.481675,"lng":-0.010802,"type":"station","name":"Cutty Sark","lines":["dlr"]},"HUBGNW":{"id":"HUBGNW","lat":51.478235,"lng":-0.014096,"type":"station","name":"Greenwich","lines":["dlr","southeastern","thameslink"]},"HUBLCY":{"id":"HUBLCY","lat":51.503419,"lng":0.048749,"type":"station","name":"London City Airport","lines":["dlr"]},"HUBLEW":{"id":"HUBLEW","lat":51.465081,"lng":-0.013016,"type":"station","name":"Lewisham","lines":["dlr","southeastern","thameslink"]},"HUBLHS":{"id":"HUBLHS","lat":51.512469,"lng":-0.039799,"type":"station","name":"Limehouse","lines":["c2c","dlr"]},"HUBRVC":{"id":"HUBRVC","lat":51.50934,"lng":0.018505,"type":"station","name":"Royal Victoria","lines":["dlr","london-cable-car"]},"HUBTOG":{"id":"HUBTOG","lat":51.510621,"lng":-0.074813,"type":"station","name":"Tower Gateway","lines":["dlr"]},"HUBWWA":{"id":"HUBWWA","lat":51.489962,"lng":0.06917,"type":"station","name":"Woolwich Arsenal","lines":["dlr","southeastern","thameslink"]},"910GABWDXR":{"id":"910GABWDXR","lat":51.491284,"lng":0.121087,"type":"station","name":"Abbey Wood","lines":["elizabeth"]},"910GACTONML":{"id":"910GACTONML","lat":51.51718,"lng":-0.266756,"type":"station","name":"Acton Main Line","lines":["elizabeth","great-western-railway"]},"910GBONDST":{"id":"910GBONDST","lat":51.51369,"lng":-0.149517,"type":"station","name":"Bond Street","lines":["elizabeth"]},"910GBRTWOOD":{"id":"910GBRTWOOD","lat":51.613605,"lng":0.299586,"type":"station","name":"Brentwood","lines":["elizabeth"]},"910GCANWHRF":{"id":"910GCANWHRF","lat":51.506321,"lng":-0.018815,"type":"station","name":"Canary Wharf","lines":["elizabeth"]},"910GCHDWLHT":{"id":"910GCHDWLHT","lat":51.568039,"lng":0.128958,"type":"station","name":"Chadwell Heath","lines":["elizabeth"]},"910GCUSTMHS":{"id":"910GCUSTMHS","lat":51.509436,"lng":0.027681,"type":"station","name":"Custom House","lines":["elizabeth"]},"910GEALINGB":{"id":"910GEALINGB","lat":51.514841,"lng":-0.301752,"type":"station","name":"Ealing Broadway","lines":["elizabeth","great-western-railway"]},"910GFRNDXR":{"id":"910GFRNDXR","lat":51.520419,"lng":-0.105237,"type":"station","name":"Farringdon","lines":["elizabeth"]},"910GFRSTGT":{"id":"910GFRSTGT","lat":51.549432,"lng":0.024353,"type":"station","name":"Forest Gate","lines":["elizabeth"]},"910GGIDEAPK":{"id":"910GGIDEAPK","lat":51.581904,"lng":0.205964,"type":"station","name":"Gidea Park","lines":["elizabeth","greater-anglia"]},"910GGODMAYS":{"id":"910GGODMAYS","lat":51.565579,"lng":0.110807,"type":"station","name":"Goodmayes","lines":["elizabeth"]},"910GHANWELL":{"id":"910GHANWELL","lat":51.511835,"lng":-0.338583,"type":"station","name":"Hanwell","lines":["elizabeth"]},"910GHAYESAH":{"id":"910GHAYESAH","lat":51.503096,"lng":-0.420683,"type":"station","name":"Hayes & Harlington","lines":["elizabeth","great-western-railway"]},"910GHRLDWOD":{"id":"910GHRLDWOD","lat":51.592766,"lng":0.233129,"type":"station","name":"Harold Wood","lines":["elizabeth"]},"910GHTRWAPT":{"id":"910GHTRWAPT","lat":51.471987,"lng":-0.454788,"type":"station","name":"Heathrow Terminals 2 & 3","lines":["elizabeth","heathrow-express"]},"910GHTRWTM4":{"id":"910GHTRWTM4","lat":51.458268,"lng":-0.445463,"type":"station","name":"Heathrow Terminal 4","lines":["elizabeth"]},"910GHTRWTM5":{"id":"910GHTRWTM5","lat":51.470053,"lng":-0.490589,"type":"station","name":"Heathrow Terminal 5","lines":["elizabeth","heathrow-express"]},"910GILFORD":{"id":"910GILFORD","lat":51.559118,"lng":0.06968,"type":"station","name":"Ilford","lines":["elizabeth","greater-anglia"]},"910GIVER":{"id":"910GIVER","lat":51.508503,"lng":-0.506726,"type":"station","name":"Iver","lines":["elizabeth","great-western-railway"]},"910GLIVSTLL":{"id":"910GLIVSTLL","lat":51.517722,"lng":-0.082043,"type":"station","name":"Liverpool Street","lines":["elizabeth"]},"910GMANRPK":{"id":"910GMANRPK","lat":51.552477,"lng":0.046342,"type":"station","name":"Manor Park","lines":["elizabeth"]},"910GMRYLAND":{"id":"910GMRYLAND","lat":51.546081,"lng":0.005815,"type":"station","name":"Maryland","lines":["elizabeth"]},"910GPADTLL":{"id":"910GPADTLL","lat":51.516449,"lng":-0.177107,"type":"station","name":"Paddington","lines":["elizabeth"]},"910GPADTON":{"id":"910GPADTON","lat":51.515996,"lng":-0.176174,"type":"station","name":"London Paddington","lines":["elizabeth","great-western-railway","heathrow-express"]},"910GSHENFLD":{"id":"910GSHENFLD","lat":51.630877,"lng":0.329851,"type":"station","name":"Shenfield","lines":["elizabeth","greater-anglia"]},"910GSTHALL":{"id":"910GSTHALL","lat":51.505957,"lng":-0.37861,"type":"station","name":"Southall","lines":["elizabeth","great-western-railway"]},"910GSVNKNGS":{"id":"910GSVNKNGS","lat":51.564026,"lng":0.0971,"type":"station","name":"Seven Kings","lines":["elizabeth","greater-anglia"]},"910GTOTCTRD":{"id":"910GTOTCTRD","lat":51.515698,"lng":-0.13044,"type":"station","name":"Tottenham Court Road","lines":["elizabeth"]},"910GWCHAPXR":{"id":"910GWCHAPXR","lat":51.519632,"lng":-0.059837,"type":"station","name":"Whitechapel","lines":["elizabeth"]},"910GWDRYTON":{"id":"910GWDRYTON","lat":51.510055,"lng":-0.472234,"type":"station","name":"West Drayton","lines":["elizabeth","great-western-railway"]},"910GWEALING":{"id":"910GWEALING","lat":51.513506,"lng":-0.320133,"type":"station","name":"West Ealing","lines":["elizabeth","great-western-railway"]},"910GWOLWXR":{"id":"910GWOLWXR","lat":51.492168,"lng":0.070593,"type":"station","name":"Woolwich","lines":["122","161","177","180","244","291","301","380","422","469","53","54","672","96","99","elizabeth","n1","n472","n53","sl11"]},"HUBABW":{"id":"HUBABW","lat":51.491247,"lng":0.121057,"type":"station","name":"Abbey Wood","lines":["elizabeth","southeastern","thameslink"]},"centroid:E1":{"id":"centroid:E1","lat":51.51833791666664,"lng":-0.06288343750000001,"type":"centroid"},"centroid:E1W":{"id":"centroid:E1W","lat":51.509188611111114,"lng":-0.05633416666666666,"type":"centroid"},"centroid:E2":{"id":"centroid:E2","lat":51.52992555555555,"lng":-0.06493611111111111,"type":"centroid"},"centroid:E3":{"id":"centroid:E3","lat":51.527230657894734,"lng":-0.024648026315789467,"type":"centroid"},"centroid:E4":{"id":"centroid:E4","lat":51.627158837209315,"lng":-0.005590116279069769,"type":"centroid"},"centroid:E5":{"id":"centroid:E5","lat":51.560993333333315,"lng":-0.05687563218390803,"type":"centroid"},"centroid:E6":{"id":"centroid:E6","lat":51.52812988235295,"lng":0.05311188235294115,"type":"centroid"},"centroid:E7":{"id":"centroid:E7","lat":51.54543093333334,"lng":0.029188533333333336,"type":"centroid"},"centroid:E8":{"id":"centroid:E8","lat":51.54425860759493,"lng":-0.0670494936708861,"type":"centroid"},"centroid:E9":{"id":"centroid:E9","lat":51.54453472222223,"lng":-0.04212166666666668,"type":"centroid"},"centroid:E10":{"id":"centroid:E10","lat":51.56784390804598,"lng":-0.01442091954022988,"type":"centroid"},"centroid:E11":{"id":"centroid:E11","lat":51.56891846153849,"lng":0.01209102564102564,"type":"centroid"},"centroid:E12":{"id":"centroid:E12","lat":51.551213653846155,"lng":0.050017307692307715,"type":"centroid"},"centroid:E13":{"id":"centroid:E13","lat":51.52727035714285,"lng":0.02565619047619047,"type":"centroid"},"centroid:E14":{"id":"centroid:E14","lat":51.509489538461544,"lng":-0.019133384615384615,"type":"centroid"},"centroid:E15":{"id":"centroid:E15","lat":51.5409467391304,"lng":0.002175760869565215,"type":"centroid"},"centroid:E16":{"id":"centroid:E16","lat":51.51336831578948,"lng":0.029841684210526326,"type":"centroid"},"centroid:E17":{"id":"centroid:E17","lat":51.58653594202897,"lng":-0.021520144927536237,"type":"centroid"},"centroid:E18":{"id":"centroid:E18","lat":51.59135294117647,"lng":0.023805882352941177,"type":"centroid"},"centroid:E20":{"id":"centroid:E20","lat":51.54503333333333,"lng":-0.008638333333333333,"type":"centroid"},"centroid:EC1A":{"id":"centroid:EC1A","lat":51.51888136363636,"lng":-0.09917409090909092,"type":"centroid"},"centroid:EC1M":{"id":"centroid:EC1M","lat":51.52088761904762,"lng":-0.10297333333333332,"type":"centroid"},"centroid:EC1N":{"id":"centroid:EC1N","lat":51.5194895652174,"lng":-0.1089821739130435,"type":"centroid"},"centroid:EC1R":{"id":"centroid:EC1R","lat":51.52579732142858,"lng":-0.10854410714285714,"type":"centroid"},"centroid:EC1V":{"id":"centroid:EC1V","lat":51.5271382857143,"lng":-0.09522314285714285,"type":"centroid"},"centroid:EC1Y":{"id":"centroid:EC1Y","lat":51.523032903225804,"lng":-0.09094032258064519,"type":"centroid"},"centroid:EC2A":{"id":"centroid:EC2A","lat":51.5232490909091,"lng":-0.08254575757575756,"type":"centroid"},"centroid:EC2M":{"id":"centroid:EC2M","lat":51.51849870967742,"lng":-0.08128645161290321,"type":"centroid"},"centroid:EC2N":{"id":"centroid:EC2N","lat":51.515452857142854,"lng":-0.083955,"type":"centroid"},"centroid:EC2R":{"id":"centroid:EC2R","lat":51.51484545454546,"lng":-0.08887772727272727,"type":"centroid"},"centroid:EC2V":{"id":"centroid:EC2V","lat":51.51540374999999,"lng":-0.09390124999999999,"type":"centroid"},"centroid:EC2Y":{"id":"centroid:EC2Y","lat":51.51962619047619,"lng":-0.09291380952380952,"type":"centroid"},"centroid:EC3A":{"id":"centroid:EC3A","lat":51.51471846153846,"lng":-0.07873846153846155,"type":"centroid"},"centroid:EC3M":{"id":"centroid:EC3M","lat":51.51200076923077,"lng":-0.08152846153846155,"type":"centroid"},"centroid:EC3N":{"id":"centroid:EC3N","lat":51.510646060606064,"lng":-0.07576484848484845,"type":"centroid"},"centroid:EC3R":{"id":"centroid:EC3R","lat":51.50957545454544,"lng":-0.08182454545454544,"type":"centroid"},"centroid:EC3V":{"id":"centroid:EC3V","lat":51.512919230769235,"lng":-0.08547153846153847,"type":"centroid"},"centroid:EC4A":{"id":"centroid:EC4A","lat":51.51604923076923,"lng":-0.10808076923076923,"type":"centroid"},"centroid:EC4M":{"id":"centroid:EC4M","lat":51.51408777777778,"lng":-0.09889222222222221,"type":"centroid"},"centroid:EC4N":{"id":"centroid:EC4N","lat":51.512434285714285,"lng":-0.089935,"type":"centroid"},"centroid:EC4R":{"id":"centroid:EC4R","lat":51.510515882352934,"lng":-0.09096647058823529,"type":"centroid"},"centroid:EC4V":{"id":"centroid:EC4V","lat":51.51146571428572,"lng":-0.0986114285714286,"type":"centroid"},"centroid:EC4Y":{"id":"centroid:EC4Y","lat":51.51167266666666,"lng":-0.10883666666666666,"type":"centroid"},"centroid:N1":{"id":"centroid:N1","lat":51.53683270491801,"lng":-0.09511647540983606,"type":"centroid"},"centroid:N1C":{"id":"centroid:N1C","lat":51.53634178571428,"lng":-0.12671857142857143,"type":"centroid"},"centroid:N2":{"id":"centroid:N2","lat":51.58791458333332,"lng":-0.17097305555555564,"type":"centroid"},"centroid:N3":{"id":"centroid:N3","lat":51.60080710144928,"lng":-0.19314130434782617,"type":"centroid"},"centroid:N4":{"id":"centroid:N4","lat":51.56920737373739,"lng":-0.1040151515151515,"type":"centroid"},"centroid:N5":{"id":"centroid:N5","lat":51.55351377049178,"lng":-0.09813311475409836,"type":"centroid"},"centroid:N6":{"id":"centroid:N6","lat":51.57384899999999,"lng":-0.14667442857142854,"type":"centroid"},"centroid:N7":{"id":"centroid:N7","lat":51.55412569892471,"lng":-0.11932161290322583,"type":"centroid"},"centroid:N8":{"id":"centroid:N8","lat":51.58346056338031,"lng":-0.11667999999999999,"type":"centroid"},"centroid:N9":{"id":"centroid:N9","lat":51.63023617977527,"lng":-0.06061089887640449,"type":"centroid"},"centroid:N10":{"id":"centroid:N10","lat":51.59311354838711,"lng":-0.1450656451612903,"type":"centroid"},"centroid:N11":{"id":"centroid:N11","lat":51.61480712643679,"lng":-0.14139448275862068,"type":"centroid"},"centroid:N12":{"id":"centroid:N12","lat":51.612967624999996,"lng":-0.17794087500000003,"type":"centroid"},"centroid:N13":{"id":"centroid:N13","lat":51.61826500000001,"lng":-0.10483852941176468,"type":"centroid"},"centroid:N14":{"id":"centroid:N14","lat":51.635833600000005,"lng":-0.1301074,"type":"centroid"},"centroid:N15":{"id":"centroid:N15","lat":51.58372542168676,"lng":-0.08281807228915661,"type":"centroid"},"centroid:N16":{"id":"centroid:N16","lat":51.56286327999999,"lng":-0.07537960000000002,"type":"centroid"},"centroid:N17":{"id":"centroid:N17","lat":51.59751094736843,"lng":-0.07371589473684212,"type":"centroid"},"centroid:N18":{"id":"centroid:N18","lat":51.61393818181817,"lng":-0.06678103896103894,"type":"centroid"},"centroid:N19":{"id":"centroid:N19","lat":51.56271678160919,"lng":-0.13138632183908053,"type":"centroid"},"centroid:N20":{"id":"centroid:N20","lat":51.62967357142855,"lng":-0.17729916666666665,"type":"centroid"},"centroid:N21":{"id":"centroid:N21","lat":51.63766626506023,"lng":-0.09834867469879521,"type":"centroid"},"centroid:N22":{"id":"centroid:N22","lat":51.60003831325301,"lng":-0.11200963855421683,"type":"centroid"},"centroid:NW1":{"id":"centroid:NW1","lat":51.53307147651008,"lng":-0.14495711409395973,"type":"centroid"},"centroid:NW2":{"id":"centroid:NW2","lat":51.55660569620252,"lng":-0.21920253164556952,"type":"centroid"},"centroid:NW3":{"id":"centroid:NW3","lat":51.55327660377361,"lng":-0.1725493396226414,"type":"centroid"},"centroid:NW4":{"id":"centroid:NW4","lat":51.587341184210516,"lng":-0.22514171052631576,"type":"centroid"},"centroid:NW5":{"id":"centroid:NW5","lat":51.55270964285715,"lng":-0.14451619047619046,"type":"centroid"},"centroid:NW6":{"id":"centroid:NW6","lat":51.54184920634922,"lng":-0.19962817460317467,"type":"centroid"},"centroid:NW7":{"id":"centroid:NW7","lat":51.6179648,"lng":-0.2408904000000001,"type":"centroid"},"centroid:NW8":{"id":"centroid:NW8","lat":51.532028461538474,"lng":-0.1746963076923077,"type":"centroid"},"centroid:NW9":{"id":"centroid:NW9","lat":51.58527828828827,"lng":-0.2574011711711712,"type":"centroid"},"centroid:NW10":{"id":"centroid:NW10","lat":51.54293032894734,"lng":-0.25267526315789474,"type":"centroid"},"centroid:NW11":{"id":"centroid:NW11","lat":51.57457291666666,"lng":-0.19936260416666662,"type":"centroid"},"centroid:SE1":{"id":"centroid:SE1","lat":51.49396263157895,"lng":-0.09166383458646618,"type":"centroid"},"centroid:SE2":{"id":"centroid:SE2","lat":51.48848719512194,"lng":0.11874463414634144,"type":"centroid"},"centroid:SE3":{"id":"centroid:SE3","lat":51.468396804123714,"lng":0.02051989690721649,"type":"centroid"},"centroid:SE4":{"id":"centroid:SE4","lat":51.46248682926831,"lng":-0.03496134146341465,"type":"centroid"},"centroid:SE5":{"id":"centroid:SE5","lat":51.47380820895523,"lng":-0.09029029850746265,"type":"centroid"},"centroid:SE6":{"id":"centroid:SE6","lat":51.43617942307692,"lng":-0.01564432692307693,"type":"centroid"},"centroid:SE7":{"id":"centroid:SE7","lat":51.48653907407408,"lng":0.03598888888888888,"type":"centroid"},"centroid:SE8":{"id":"centroid:SE8","lat":51.47967855263159,"lng":-0.029833026315789463,"type":"centroid"},"centroid:SE9":{"id":"centroid:SE9","lat":51.44444396551723,"lng":0.058048017241379306,"type":"centroid"},"centroid:SE10":{"id":"centroid:SE10","lat":51.482114366197194,"lng":-0.0009484507042253523,"type":"centroid"},"centroid:SE11":{"id":"centroid:SE11","lat":51.48897000000001,"lng":-0.11270703703703704,"type":"centroid"},"centroid:SE12":{"id":"centroid:SE12","lat":51.44248172839506,"lng":0.01976456790123457,"type":"centroid"},"centroid:SE13":{"id":"centroid:SE13","lat":51.45928029411765,"lng":-0.01099862745098039,"type":"centroid"},"centroid:SE14":{"id":"centroid:SE14","lat":51.47469037499999,"lng":-0.04064925,"type":"centroid"},"centroid:SE15":{"id":"centroid:SE15","lat":51.470791261261226,"lng":-0.0635972072072072,"type":"centroid"},"centroid:SE16":{"id":"centroid:SE16","lat":51.49352546666667,"lng":-0.05706560000000001,"type":"centroid"},"centroid:SE17":{"id":"centroid:SE17","lat":51.48707706666667,"lng":-0.093504,"type":"centroid"},"centroid:SE18":{"id":"centroid:SE18","lat":51.482688454545475,"lng":0.06963145454545452,"type":"centroid"},"centroid:SE19":{"id":"centroid:SE19","lat":51.41883933333334,"lng":-0.08573533333333336,"type":"centroid"},"centroid:SE20":{"id":"centroid:SE20","lat":51.41311145161292,"lng":-0.0597366129032258,"type":"centroid"},"centroid:SE21":{"id":"centroid:SE21","lat":51.44064482758622,"lng":-0.08775643678160923,"type":"centroid"},"centroid:SE22":{"id":"centroid:SE22","lat":51.45460797101449,"lng":-0.07274159420289852,"type":"centroid"},"centroid:SE23":{"id":"centroid:SE23","lat":51.44159144736844,"lng":-0.04742197368421053,"type":"centroid"},"centroid:SE24":{"id":"centroid:SE24","lat":51.45567050632911,"lng":-0.10043430379746837,"type":"centroid"},"centroid:SE25":{"id":"centroid:SE25","lat":51.39727999999998,"lng":-0.07978025000000001,"type":"centroid"},"centroid:SE26":{"id":"centroid:SE26","lat":51.4269418292683,"lng":-0.051829756097561,"type":"centroid"},"centroid:SE27":{"id":"centroid:SE27","lat":51.4309464864865,"lng":-0.10125445945945945,"type":"centroid"},"centroid:SE28":{"id":"centroid:SE28","lat":51.50036488372095,"lng":0.1036506976744186,"type":"centroid"},"centroid:SW1A":{"id":"centroid:SW1A","lat":51.504288571428575,"lng":-0.13177261904761908,"type":"centroid"},"centroid:SW1E":{"id":"centroid:SW1E","lat":51.49868608695652,"lng":-0.1398130434782609,"type":"centroid"},"centroid:SW1H":{"id":"centroid:SW1H","lat":51.49924157894737,"lng":-0.1336557894736842,"type":"centroid"},"centroid:SW1P":{"id":"centroid:SW1P","lat":51.49475804347826,"lng":-0.1325417391304348,"type":"centroid"},"centroid:SW1V":{"id":"centroid:SW1V","lat":51.490663249999976,"lng":-0.13892174999999998,"type":"centroid"},"centroid:SW1W":{"id":"centroid:SW1W","lat":51.49385425531915,"lng":-0.15058723404255314,"type":"centroid"},"centroid:SW1X":{"id":"centroid:SW1X","lat":51.49831333333332,"lng":-0.157640625,"type":"centroid"},"centroid:SW1Y":{"id":"centroid:SW1Y","lat":51.50789785714286,"lng":-0.1332675,"type":"centroid"},"centroid:SW2":{"id":"centroid:SW2","lat":51.450729569892474,"lng":-0.12039182795698922,"type":"centroid"},"centroid:SW3":{"id":"centroid:SW3","lat":51.492431829268284,"lng":-0.1671017073170732,"type":"centroid"},"centroid:SW4":{"id":"centroid:SW4","lat":51.46100751937985,"lng":-0.13652170542635658,"type":"centroid"},"centroid:SW5":{"id":"centroid:SW5","lat":51.49178972222224,"lng":-0.19183972222222226,"type":"centroid"},"centroid:SW6":{"id":"centroid:SW6","lat":51.47907181818181,"lng":-0.20210454545454543,"type":"centroid"},"centroid:SW7":{"id":"centroid:SW7","lat":51.49706986666667,"lng":-0.17622253333333338,"type":"centroid"},"centroid:SW8":{"id":"centroid:SW8","lat":51.4765087654321,"lng":-0.13369765432098768,"type":"centroid"},"centroid:SW9":{"id":"centroid:SW9","lat":51.4693595652174,"lng":-0.11404956521739129,"type":"centroid"},"centroid:SW10":{"id":"centroid:SW10","lat":51.48376266666667,"lng":-0.1820115555555556,"type":"centroid"},"centroid:SW11":{"id":"centroid:SW11","lat":51.46494187499999,"lng":-0.16420395833333332,"type":"centroid"},"centroid:SW12":{"id":"centroid:SW12","lat":51.44608602564103,"lng":-0.14943166666666668,"type":"centroid"},"centroid:SW13":{"id":"centroid:SW13","lat":51.47371938775511,"lng":-0.24276836734693877,"type":"centroid"},"centroid:SW14":{"id":"centroid:SW14","lat":51.46442355555556,"lng":-0.26836444444444446,"type":"centroid"},"centroid:SW15":{"id":"centroid:SW15","lat":51.45298124999999,"lng":-0.2337679545454546,"type":"centroid"},"centroid:SW16":{"id":"centroid:SW16","lat":51.420417380952394,"lng":-0.1261101587301587,"type":"centroid"},"centroid:SW17":{"id":"centroid:SW17","lat":51.43151647058825,"lng":-0.16607098039215692,"type":"centroid"},"centroid:SW18":{"id":"centroid:SW18","lat":51.45094619047621,"lng":-0.1918804761904762,"type":"centroid"},"centroid:SW19":{"id":"centroid:SW19","lat":51.4242766438356,"lng":-0.20386102739726025,"type":"centroid"},"centroid:SW20":{"id":"centroid:SW20","lat":51.40848693693692,"lng":-0.2272417117117117,"type":"centroid"},"centroid:W1B":{"id":"centroid:W1B","lat":51.515574318181805,"lng":-0.14172272727272728,"type":"centroid"},"centroid:W1C":{"id":"centroid:W1C","lat":51.51457392857143,"lng":-0.14928464285714285,"type":"centroid"},"centroid:W1D":{"id":"centroid:W1D","lat":51.51388999999999,"lng":-0.13343875000000002,"type":"centroid"},"centroid:W1F":{"id":"centroid:W1F","lat":51.51313956521739,"lng":-0.13637695652173912,"type":"centroid"},"centroid:W1G":{"id":"centroid:W1G","lat":51.517961842105265,"lng":-0.14692710526315791,"type":"centroid"},"centroid:W1H":{"id":"centroid:W1H","lat":51.51708704545455,"lng":-0.16065272727272728,"type":"centroid"},"centroid:W1J":{"id":"centroid:W1J","lat":51.507699069767455,"lng":-0.1434911627906977,"type":"centroid"},"centroid:W1K":{"id":"centroid:W1K","lat":51.50914296296297,"lng":-0.15081925925925924,"type":"centroid"},"centroid:W1S":{"id":"centroid:W1S","lat":51.51134562499999,"lng":-0.14237406249999995,"type":"centroid"},"centroid:W1T":{"id":"centroid:W1T","lat":51.520771212121225,"lng":-0.1373048484848485,"type":"centroid"},"centroid:W1U":{"id":"centroid:W1U","lat":51.51797608695652,"lng":-0.152595652173913,"type":"centroid"},"centroid:W1W":{"id":"centroid:W1W","lat":51.52000125000001,"lng":-0.14160458333333334,"type":"centroid"},"centroid:W2":{"id":"centroid:W2","lat":51.51587308823531,"lng":-0.17966235294117647,"type":"centroid"},"centroid:W3":{"id":"centroid:W3","lat":51.510817040816335,"lng":-0.2699660204081633,"type":"centroid"},"centroid:W4":{"id":"centroid:W4","lat":51.490357272727266,"lng":-0.26274015151515145,"type":"centroid"},"centroid:W5":{"id":"centroid:W5","lat":51.511231487603304,"lng":-0.30121958677685956,"type":"centroid"},"centroid:W6":{"id":"centroid:W6","lat":51.49342154929577,"lng":-0.22774788732394374,"type":"centroid"},"centroid:W7":{"id":"centroid:W7","lat":51.50964779661017,"lng":-0.3349877966101694,"type":"centroid"},"centroid:W8":{"id":"centroid:W8","lat":51.50007387096773,"lng":-0.19454532258064514,"type":"centroid"},"centroid:W9":{"id":"centroid:W9","lat":51.52852235294117,"lng":-0.19456279411764715,"type":"centroid"},"centroid:W10":{"id":"centroid:W10","lat":51.523009180327875,"lng":-0.21516491803278692,"type":"centroid"},"centroid:W11":{"id":"centroid:W11","lat":51.511401929824544,"lng":-0.20587192982456143,"type":"centroid"},"centroid:W12":{"id":"centroid:W12","lat":51.508090519480525,"lng":-0.23658233766233777,"type":"centroid"},"centroid:W13":{"id":"centroid:W13","lat":51.512409718309854,"lng":-0.3206916901408452,"type":"centroid"},"centroid:W14":{"id":"centroid:W14","lat":51.49602578947368,"lng":-0.21018526315789474,"type":"centroid"},"centroid:WC1A":{"id":"centroid:WC1A","lat":51.51762999999999,"lng":-0.1254535294117647,"type":"centroid"},"centroid:WC1B":{"id":"centroid:WC1B","lat":51.51950638888891,"lng":-0.1264725,"type":"centroid"},"centroid:WC1E":{"id":"centroid:WC1E","lat":51.52195592592593,"lng":-0.1315537037037037,"type":"centroid"},"centroid:WC1H":{"id":"centroid:WC1H","lat":51.52624361702127,"lng":-0.12741234042553187,"type":"centroid"},"centroid:WC1N":{"id":"centroid:WC1N","lat":51.52419517241379,"lng":-0.12184172413793103,"type":"centroid"},"centroid:WC1R":{"id":"centroid:WC1R","lat":51.51941894736842,"lng":-0.11695368421052628,"type":"centroid"},"centroid:WC1V":{"id":"centroid:WC1V","lat":51.51770592592593,"lng":-0.11802333333333334,"type":"centroid"},"centroid:WC1X":{"id":"centroid:WC1X","lat":51.52515578125,"lng":-0.11441765624999997,"type":"centroid"},"centroid:WC2A":{"id":"centroid:WC2A","lat":51.515919999999994,"lng":-0.11471125,"type":"centroid"},"centroid:WC2B":{"id":"centroid:WC2B","lat":51.51385799999999,"lng":-0.12032914285714284,"type":"centroid"},"centroid:WC2E":{"id":"centroid:WC2E","lat":51.512295483870965,"lng":-0.12230645161290322,"type":"centroid"},"centroid:WC2H":{"id":"centroid:WC2H","lat":51.51277499999999,"lng":-0.1283682352941177,"type":"centroid"},"centroid:WC2N":{"id":"centroid:WC2N","lat":51.5089580952381,"lng":-0.12504476190476188,"type":"centroid"},"centroid:WC2R":{"id":"centroid:WC2R","lat":51.511117,"lng":-0.117395,"type":"centroid"},"centroid:BR1":{"id":"centroid:BR1","lat":51.41380175182482,"lng":0.02261277372262775,"type":"centroid"},"centroid:BR2":{"id":"centroid:BR2","lat":51.383694695121946,"lng":0.021105731707317065,"type":"centroid"},"centroid:BR3":{"id":"centroid:BR3","lat":51.40455127118642,"lng":-0.029300593220338983,"type":"centroid"},"centroid:BR4":{"id":"centroid:BR4","lat":51.374933676470576,"lng":-0.005979705882352942,"type":"centroid"},"centroid:BR5":{"id":"centroid:BR5","lat":51.38879174496642,"lng":0.09831570469798653,"type":"centroid"},"centroid:BR6":{"id":"centroid:BR6","lat":51.36223316455695,"lng":0.09469898734177215,"type":"centroid"},"centroid:BR7":{"id":"centroid:BR7","lat":51.41301666666666,"lng":0.07210989583333334,"type":"centroid"},"centroid:BR8":{"id":"centroid:BR8","lat":51.399667884615376,"lng":0.18109173076923077,"type":"centroid"},"centroid:CR0":{"id":"centroid:CR0","lat":51.371510617760585,"lng":-0.07782081081081081,"type":"centroid"},"centroid:CR2":{"id":"centroid:CR2","lat":51.350033076923076,"lng":-0.08198730769230773,"type":"centroid"},"centroid:CR3":{"id":"centroid:CR3","lat":51.29021108695651,"lng":-0.07219576086956522,"type":"centroid"},"centroid:CR4":{"id":"centroid:CR4","lat":51.40229598214285,"lng":-0.15748473214285716,"type":"centroid"},"centroid:CR5":{"id":"centroid:CR5","lat":51.3044059574468,"lng":-0.15074765957446817,"type":"centroid"},"centroid:CR6":{"id":"centroid:CR6","lat":51.30929697368421,"lng":-0.036155526315789464,"type":"centroid"},"centroid:CR7":{"id":"centroid:CR7","lat":51.399074897959174,"lng":-0.10912989795918367,"type":"centroid"},"centroid:CR8":{"id":"centroid:CR8","lat":51.330287592592576,"lng":-0.11543574074074071,"type":"centroid"},"centroid:DA1":{"id":"centroid:DA1","lat":51.44774547368423,"lng":0.2064603157894738,"type":"centroid"},"centroid:DA2":{"id":"centroid:DA2","lat":51.42993801324499,"lng":0.222833178807947,"type":"centroid"},"centroid:DA3":{"id":"centroid:DA3","lat":51.37585675675676,"lng":0.29820162162162145,"type":"centroid"},"centroid:DA4":{"id":"centroid:DA4","lat":51.38157118644068,"lng":0.2286810169491526,"type":"centroid"},"centroid:DA5":{"id":"centroid:DA5","lat":51.439300000000024,"lng":0.1491517021276596,"type":"centroid"},"centroid:DA6":{"id":"centroid:DA6","lat":51.45524409836065,"lng":0.14188213114754095,"type":"centroid"},"centroid:DA7":{"id":"centroid:DA7","lat":51.46611447368421,"lng":0.1461357894736842,"type":"centroid"},"centroid:DA8":{"id":"centroid:DA8","lat":51.47581153846152,"lng":0.1742144871794872,"type":"centroid"},"centroid:DA9":{"id":"centroid:DA9","lat":51.44755439024392,"lng":0.27612268292682923,"type":"centroid"},"centroid:DA10":{"id":"centroid:DA10","lat":51.44398741935485,"lng":0.3066045161290322,"type":"centroid"},"centroid:DA14":{"id":"centroid:DA14","lat":51.42452810526317,"lng":0.11340189473684215,"type":"centroid"},"centroid:DA15":{"id":"centroid:DA15","lat":51.44138533980583,"lng":0.09806310679611649,"type":"centroid"},"centroid:DA16":{"id":"centroid:DA16","lat":51.46511042857143,"lng":0.10596714285714288,"type":"centroid"},"centroid:DA17":{"id":"centroid:DA17","lat":51.4894394736842,"lng":0.1477480263157895,"type":"centroid"},"centroid:DA18":{"id":"centroid:DA18","lat":51.495681785714275,"lng":0.13819785714285718,"type":"centroid"},"centroid:EN1":{"id":"centroid:EN1","lat":51.65674733870967,"lng":-0.06560709677419357,"type":"centroid"},"centroid:EN2":{"id":"centroid:EN2","lat":51.66303786324788,"lng":-0.09556786324786323,"type":"centroid"},"centroid:EN3":{"id":"centroid:EN3","lat":51.659498133333315,"lng":-0.03673333333333333,"type":"centroid"},"centroid:EN4":{"id":"centroid:EN4","lat":51.65004011235954,"lng":-0.15826696629213483,"type":"centroid"},"centroid:EN5":{"id":"centroid:EN5","lat":51.652331340206196,"lng":-0.2039949484536082,"type":"centroid"},"centroid:EN8":{"id":"centroid:EN8","lat":51.69905183908047,"lng":-0.03747563218390805,"type":"centroid"},"centroid:HA0":{"id":"centroid:HA0","lat":51.55255972222224,"lng":-0.3084983333333335,"type":"centroid"},"centroid:HA1":{"id":"centroid:HA1","lat":51.57636974576272,"lng":-0.338874152542373,"type":"centroid"},"centroid:HA2":{"id":"centroid:HA2","lat":51.579391375,"lng":-0.3619089374999999,"type":"centroid"},"centroid:HA3":{"id":"centroid:HA3","lat":51.59563862745099,"lng":-0.3204365359477125,"type":"centroid"},"centroid:HA4":{"id":"centroid:HA4","lat":51.5697598765432,"lng":-0.4059824691358025,"type":"centroid"},"centroid:HA5":{"id":"centroid:HA5","lat":51.596144180327826,"lng":-0.38408811475409843,"type":"centroid"},"centroid:HA6":{"id":"centroid:HA6","lat":51.61277402597404,"lng":-0.4231803896103896,"type":"centroid"},"centroid:HA7":{"id":"centroid:HA7","lat":51.61116175572519,"lng":-0.3108548854961833,"type":"centroid"},"centroid:HA8":{"id":"centroid:HA8","lat":51.61285150793652,"lng":-0.274755,"type":"centroid"},"centroid:HA9":{"id":"centroid:HA9","lat":51.56395280898875,"lng":-0.28901651685393254,"type":"centroid"},"centroid:IG1":{"id":"centroid:IG1","lat":51.56295477272727,"lng":0.07213897727272728,"type":"centroid"},"centroid:IG2":{"id":"centroid:IG2","lat":51.57752621621621,"lng":0.08231234234234233,"type":"centroid"},"centroid:IG3":{"id":"centroid:IG3","lat":51.56505906976744,"lng":0.10316348837209299,"type":"centroid"},"centroid:IG4":{"id":"centroid:IG4","lat":51.58108489795917,"lng":0.05000183673469388,"type":"centroid"},"centroid:IG5":{"id":"centroid:IG5","lat":51.58946543859648,"lng":0.06348807017543862,"type":"centroid"},"centroid:IG6":{"id":"centroid:IG6","lat":51.596032155172466,"lng":0.09031586206896555,"type":"centroid"},"centroid:IG7":{"id":"centroid:IG7","lat":51.61487595959596,"lng":0.09671070707070707,"type":"centroid"},"centroid:IG8":{"id":"centroid:IG8","lat":51.60591817307692,"lng":0.034714615384615385,"type":"centroid"},