[{"routeId":"1","stops":[{"naptanId":"490004733C","name":"Canada Water Bus Station","lat":51.49777,"lon":-0.04984},{"naptanId":"490011723E","name":"Hothfield Place","lat":51.49494,"lon":-0.05048},{"naptanId":"490013042J","name":"Surrey Quays Shopping Centre","lat":51.49401,"lon":-0.04626},{"naptanId":"490000229L","name":"Surrey Quays Station","lat":51.49342,"lon":-0.04601},{"naptanId":"490011722Q","name":"Warndon Street","lat":51.49113,"lon":-0.04918},{"naptanId":"490005603W","name":"Corbetts Lane","lat":51.49064,"lon":-0.05404},{"naptanId":"490011719A","name":"Rotherhithe New Rd / Sth Bermondsey Stn","lat":51.48892,"lon":-0.05731},{"naptanId":"490009482N","name":"Lynton Road","lat":51.4902,"lon":-0.05978},{"naptanId":"490003311N","name":"Anchor Street","lat":51.49158,"lon":-0.06062},{"naptanId":"490012353W","name":"Southwark Park Road / St James's Road","lat":51.49225,"lon":-0.06487},{"naptanId":"490011538W","name":"Reverdy Road","lat":51.49269,"lon":-0.06952},{"naptanId":"490003275W","name":"Alscot Road","lat":51.49362,"lon":-0.07444},{"naptanId":"490012367W","name":"Spa Road","lat":51.49537,"lon":-0.07766},{"naptanId":"490007362S","name":"Grange Road / Caledonian Market","lat":51.4964,"lon":-0.08227},{"naptanId":"490015272BJ","name":"Bricklayer's Arms / Tower Bridge Road","lat":51.49515,"lon":-0.08396},{"naptanId":"490003658BS","name":"Bricklayer's Arms / New Kent Road","lat":51.49403,"lon":-0.09024},{"naptanId":"490011632BT","name":"Rodney Place","lat":51.49417,"lon":-0.09467},{"naptanId":"490000073N","name":"Elephant & Castle   / New Kent Road","lat":51.49498,"lon":-0.09923},{"naptanId":"490009281A","name":"Elephant & Castle  / London Road","lat":51.49613,"lon":-0.10172},{"naptanId":"490012693N1","name":"St George's Circus","lat":51.49984,"lon":-0.10727},{"naptanId":"490013485N","name":"The Old Vic","lat":51.50129,"lon":-0.10909},{"naptanId":"490000254K","name":"Waterloo Station / Tenison Way","lat":51.50436,"lon":-0.11374},{"naptanId":"490014270P","name":"Waterloo Bridge / South Bank","lat":51.50626,"lon":-0.115},{"naptanId":"490008932T","name":"Lancaster Place","lat":51.51045,"lon":-0.11872},{"naptanId":"490003191F","name":"Aldwych / Kingsway","lat":51.51314,"lon":-0.11795},{"naptanId":"490000112N","name":"Holborn Station","lat":51.51687,"lon":-0.12014},{"naptanId":"490013477Y","name":"Southampton Row / Theobald's Road","lat":51.51953,"lon":-0.12191},{"naptanId":"490000200H","name":"Russell Square Station","lat":51.52321,"lon":-0.12638},{"naptanId":"490013170N","name":"Tavistock Square","lat":51.5249,"lon":-0.12804},{"naptanId":"490012867L","name":"Upper Woburn Place / Euston Road","lat":51.52716,"lon":-0.13078},{"naptanId":"490000077A","name":"Euston Station  / Eversholt Street","lat":51.52918,"lon":-0.13294},{"naptanId":"490003174N","name":"Aldenham Street","lat":51.53158,"lon":-0.13554},{"naptanId":"490000152F","name":"Mornington Cres Stn / Camden Tn Library","lat":51.53416,"lon":-0.13836},{"naptanId":"490004714J","name":"Camden High Street","lat":51.53651,"lon":-0.14057},{"naptanId":"490015041X","name":"Camden Town Station","lat":51.53843,"lon":-0.14234},{"naptanId":"490007876O","name":"Hartland Road / Camden Market","lat":51.54229,"lon":-0.14693},{"naptanId":"490013538CF","name":"The Roundhouse","lat":51.54333,"lon":-0.15123},{"naptanId":"490000043CC","name":"Chalk Farm Station","lat":51.54437,"lon":-0.15393},{"naptanId":"490012664N","name":"Steele's Road / Steele's Village","lat":51.54652,"lon":-0.15785},{"naptanId":"490013939N","name":"Upper Park Road","lat":51.54921,"lon":-0.1628},{"naptanId":"490000020K","name":"Belsize Park Station","lat":51.5507,"lon":-0.16528},{"naptanId":"490015255G","name":"Rosslyn Hill","lat":51.55278,"lon":-0.1685},{"naptanId":"490011760C","name":"Royal Free Hospital","lat":51.55384,"lon":-0.167},{"naptanId":"490012280N","name":"South End Green","lat":51.55439,"lon":-0.16571}]},{"routeId":"100","stops":[{"naptanId":"490012020B","name":"St George's Town Hall / Shadwell Stn","lat":51.51103,"lon":-0.05895},{"naptanId":"490013687J","name":"Tobacco Dock","lat":51.50891,"lon":-0.05866},{"naptanId":"490014209S","name":"Wapping Health Centre","lat":51.50625,"lon":-0.0585},{"naptanId":"490011250E","name":"Clegg Street","lat":51.50548,"lon":-0.05705},{"naptanId":"490003335E","name":"Garnet Street","lat":51.50648,"lon":-0.05577},{"naptanId":"490014211S","name":"Wapping Wall","lat":51.50539,"lon":-0.0543},{"naptanId":"490000251W","name":"Wapping Station","lat":51.50457,"lon":-0.05588},{"naptanId":"490006246W","name":"Dundee Street","lat":51.50325,"lon":-0.06086},{"naptanId":"490014210W","name":"Sampson Street","lat":51.50366,"lon":-0.06327},{"naptanId":"490008089W","name":"Hermitage Wall","lat":51.50494,"lon":-0.06465},{"naptanId":"490012021N","name":"Stockholm Way","lat":51.50601,"lon":-0.06663},{"naptanId":"490014016N","name":"The Highway","lat":51.50766,"lon":-0.06673},{"naptanId":"490014944W","name":"St Katharine Docks","lat":51.50833,"lon":-0.07179},{"naptanId":"490002076Y","name":"Tower Gateway Station","lat":51.51043,"lon":-0.07511},{"naptanId":"490009606S","name":"Mansell Street","lat":51.51283,"lon":-0.07333},{"naptanId":"490006229ZY","name":"Duke's Place","lat":51.51457,"lon":-0.07863},{"naptanId":"490004043N","name":"Bishopsgate","lat":51.51592,"lon":-0.08114},{"naptanId":"490004043Q","name":"Wormwood Street","lat":51.51618,"lon":-0.08229},{"naptanId":"490015208N","name":"London Wall / Moorgate Station","lat":51.51744,"lon":-0.09026},{"naptanId":"490010130W","name":"London Wall","lat":51.51744,"lon":-0.0952},{"naptanId":"490000225W","name":"St Paul's Station","lat":51.51544,"lon":-0.09716},{"naptanId":"490008743N","name":"King Edward Street / St Pauls Station","lat":51.51655,"lon":-0.09864}]},{"routeId":"101","stops":[{"naptanId":"490006317D","name":"Beckton Bus Station","lat":51.51443,"lon":0.05999},{"naptanId":"490013691F","name":"Tollgate Road","lat":51.51683,"lon":0.06012},{"naptanId":"490003747N","name":"Albatross Close","lat":51.5195,"lon":0.05951},{"naptanId":"490009348N","name":"Lonsdale Avenue","lat":51.5216,"lon":0.0581},{"naptanId":"490010045N","name":"Mortimer Road","lat":51.5246,"lon":0.05711},{"naptanId":"490009682N","name":"Marlow Road","lat":51.52641,"lon":0.0564},{"naptanId":"490006358N","name":"East Ham / Central Park","lat":51.52878,"lon":0.05608},{"naptanId":"490013665N","name":"Tilbury Road","lat":51.52995,"lon":0.05577},{"naptanId":"490010218U","name":"Newham Town Hall","lat":51.5321,"lon":0.05499},{"naptanId":"490013645L","name":"Kempton Road","lat":51.53474,"lon":0.053},{"naptanId":"490004881J","name":"Caledon Road","lat":51.53589,"lon":0.05246},{"naptanId":"490003888D","name":"Bendish Road","lat":51.53811,"lon":0.05138},{"naptanId":"490000068B","name":"East Ham Station","lat":51.53938,"lon":0.05105},{"naptanId":"490007200Y","name":"Gladstone Avenue","lat":51.5408,"lon":0.05055},{"naptanId":"490012058N2","name":"Shelley Avenue","lat":51.54293,"lon":0.04991},{"naptanId":"490011801N","name":"Ruskin Avenue","lat":51.54501,"lon":0.04942},{"naptanId":"490003921N","name":"Berkeley Road","lat":51.54693,"lon":0.04863},{"naptanId":"490005694C","name":"Romford Road","lat":51.55006,"lon":0.04772},{"naptanId":"490001189N","name":"Manor Park Station","lat":51.55208,"lon":0.04671},{"naptanId":"490004769W","name":"Capel Road","lat":51.55426,"lon":0.04635},{"naptanId":"490005322N","name":"City of London Cemetery","lat":51.55696,"lon":0.04464},{"naptanId":"490014205N","name":"Wanstead Park Avenue","lat":51.55882,"lon":0.04156},{"naptanId":"490009816N","name":"Merlin Road","lat":51.55962,"lon":0.03974},{"naptanId":"490006566N","name":"Empress Avenue","lat":51.56049,"lon":0.038},{"naptanId":"490006151N","name":"Dover Road","lat":51.56201,"lon":0.03497},{"naptanId":"490010812W","name":"Park Road","lat":51.56287,"lon":0.03231},{"naptanId":"490011372N","name":"Queenswood Gardens","lat":51.56391,"lon":0.02556},{"naptanId":"490004087N","name":"Blake Hall Crescent","lat":51.56663,"lon":0.0246},{"naptanId":"490004653N","name":"Bush Road","lat":51.57065,"lon":0.02342},{"naptanId":"490004706N","name":"Cambridge Park","lat":51.57305,"lon":0.02351},{"naptanId":"490015125B","name":"Wanstead Station","lat":51.57531,"lon":0.02712},{"naptanId":"490014816W","name":"Woodbine Place","lat":51.57682,"lon":0.02681}]},{"routeId":"102","stops":[{"naptanId":"490004282D","name":"Brent Cross Shopping Centre","lat":51.57576,"lon":-0.22269},{"naptanId":"490009624W","name":"Mapledown School","lat":51.57362,"lon":-0.22006},{"naptanId":"490005434S","name":"Claremont Way","lat":51.57172,"lon":-0.21885},{"naptanId":"490005435S","name":"Clitterhouse Road North","lat":51.5693,"lon":-0.21873},{"naptanId":"490008053S","name":"Clitterhouse Road South","lat":51.56766,"lon":-0.21822},{"naptanId":"490010915E","name":"Pennine Drive / Claremont Road","lat":51.56501,"lon":-0.21542},{"naptanId":"490010916E","name":"Cleveland Gardens","lat":51.56697,"lon":-0.21155},{"naptanId":"490008059E","name":"Hendon Way","lat":51.56864,"lon":-0.20827},{"naptanId":"490013578S","name":"The Vale","lat":51.5678,"lon":-0.20696},{"naptanId":"490006263E","name":"Dunstan Road","lat":51.56896,"lon":-0.20242},{"naptanId":"490007267GM","name":"Golders Green / Finchley Road","lat":51.57109,"lon":-0.19546},{"naptanId":"490015496GU","name":"Golders Green Station","lat":51.57284,"lon":-0.19578},{"naptanId":"490008343N","name":"Hoop Lane","lat":51.57521,"lon":-0.1964},{"naptanId":"490005421N","name":"Clifton Gardens","lat":51.57947,"lon":-0.19816},{"naptanId":"490013192N","name":"Temple Fortune Lane","lat":51.58308,"lon":-0.19967},{"naptanId":"490005162N","name":"Childs Way","lat":51.58558,"lon":-0.19999},{"naptanId":"490008070N","name":"Henlys Corner / Addison Way","lat":51.5888,"lon":-0.19994},{"naptanId":"490008069E","name":"Henlys Corner","lat":51.58991,"lon":-0.19884},{"naptanId":"490003723E","name":"Beaufort Drive","lat":51.58852,"lon":-0.19456},{"naptanId":"490004463E","name":"Brookland Rise","lat":51.58708,"lon":-0.19134},{"naptanId":"490009866E","name":"Midholm","lat":51.58646,"lon":-0.18762},{"naptanId":"490009659E","name":"Market Place","lat":51.58593,"lon":-0.18228},{"naptanId":"490004093E","name":"Blandford Close","lat":51.58538,"lon":-0.17755},{"naptanId":"490003881E","name":"Belvedere Court","lat":51.58448,"lon":-0.17052},{"naptanId":"490003529A","name":"Aylmer Road","lat":51.58434,"lon":-0.1673},{"naptanId":"490000067E","name":"East Finchley Station","lat":51.58659,"lon":-0.16425},{"naptanId":"490013880K","name":"Fairlawn Avenue","lat":51.58971,"lon":-0.16316},{"naptanId":"490012392E","name":"Twyford Avenue","lat":51.59025,"lon":-0.1593},{"naptanId":"490006947E","name":"Midhurst Avenue","lat":51.59105,"lon":-0.15303},{"naptanId":"490006949E","name":"Fortismere Avenue","lat":51.59114,"lon":-0.14998},{"naptanId":"490010135K","name":"Muswell Hill Road","lat":51.58994,"lon":-0.14589},{"naptanId":"490015187F","name":"Muswell Hill","lat":51.59081,"lon":-0.14292},{"naptanId":"490015186A","name":"Queens Avenue","lat":51.59185,"lon":-0.14309},{"naptanId":"490009765N","name":"Meadow Drive","lat":51.59419,"lon":-0.14464},{"naptanId":"490005509N","name":"Colney Hatch Lane","lat":51.59619,"lon":-0.14401},{"naptanId":"490014757N","name":"St Andrew's Church","lat":51.59751,"lon":-0.14217},{"naptanId":"490011684N","name":"Rosebery Road","lat":51.59872,"lon":-0.13815},{"naptanId":"490014061N","name":"Victoria Road","lat":51.60063,"lon":-0.13427},{"naptanId":"490003158N","name":"Albert Road","lat":51.60239,"lon":-0.13098},{"naptanId":"490014844N","name":"Woodfield Way","lat":51.6056,"lon":-0.12642},{"naptanId":"490000028C","name":"Bounds Green Station","lat":51.60806,"lon":-0.12359},{"naptanId":"490015014N","name":"York Road","lat":51.61028,"lon":-0.12267},{"naptanId":"490004490N","name":"Bowes Road","lat":51.61218,"lon":-0.12187},{"naptanId":"490003564E","name":"Pymmes Road","lat":51.61255,"lon":-0.11868},{"naptanId":"490007476E","name":"Palmers Green / Palmerston Road","lat":51.61264,"lon":-0.11132},{"naptanId":"490007476P","name":"Green Lanes","lat":51.61268,"lon":-0.10781},{"naptanId":"490009800E","name":"Melville Gardens","lat":51.61418,"lon":-0.103},{"naptanId":"490005091E","name":"Chequers Way","lat":51.61582,"lon":-0.0978},{"naptanId":"490013893E","name":"Ulster Gardens","lat":51.61636,"lon":-0.09251},{"naptanId":"490015301E","name":"Cambridge Roundabout / West Side","lat":51.61654,"lon":-0.08864},{"naptanId":"490004712E1","name":"Cambridge Roundabout / East Side","lat":51.6165,"lon":-0.08454},{"naptanId":"490009357E","name":"North Middlesex Hospital","lat":51.61656,"lon":-0.07888},{"naptanId":"490010388M","name":"Pymmes Park","lat":51.6154,"lon":-0.07215},{"naptanId":"490014060Q1","name":"Victoria Road","lat":51.61503,"lon":-0.06939},{"naptanId":"490003324B","name":"Angel Corner / Silver Street Station","lat":51.61487,"lon":-0.06537},{"naptanId":"490010801H","name":"Angel Corner","lat":51.61614,"lon":-0.06404},{"naptanId":"490010801Z","name":"Brettenham Road","lat":51.6178,"lon":-0.06341},{"naptanId":"490011968N","name":"Shrubbery Road","lat":51.6209,"lon":-0.06212},{"naptanId":"490006445B","name":"Edmonton Police Station","lat":51.6227,"lon":-0.06157},{"naptanId":"490006442R","name":"Edmonton Green Station","lat":51.62451,"lon":-0.06074},{"naptanId":"490009983A","name":"Edmonton Green Bus Station","lat":51.62518,"lon":-0.05888}]},{"routeId":"103","stops":[{"naptanId":"490001235E","name":"Rainham Interchange","lat":51.51686,"lon":0.19117},{"naptanId":"490011396C","name":"Rainham War Memorial","lat":51.51853,"lon":0.18996},{"naptanId":"490006153J","name":"Dovers Corner","lat":51.52269,"lon":0.19078},{"naptanId":"490008878N","name":"Ingrebourne Hill Country Park","lat":51.52569,"lon":0.19219},{"naptanId":"490005098W","name":"Cherry Tree Lane","lat":51.52854,"lon":0.19018},{"naptanId":"490010169W","name":"Nelson Road","lat":51.53116,"lon":0.18653},{"naptanId":"490007074W","name":"Fyfield Road","lat":51.5328,"lon":0.18395},{"naptanId":"490013640W","name":"Thorogood Way","lat":51.53468,"lon":0.17881},{"naptanId":"490015012W","name":"York Road","lat":51.53621,"lon":0.17435},{"naptanId":"490004739W","name":"Leys Avenue","lat":51.53726,"lon":0.17015},{"naptanId":"490009126W","name":"Ballards Road","lat":51.53814,"lon":0.16722},{"naptanId":"490003566N2","name":"Ballards Road","lat":51.54003,"lon":0.16532},{"naptanId":"490011908N","name":"Sandown Avenue","lat":51.54159,"lon":0.16531},{"naptanId":"490000058A","name":"Dagenham East Station","lat":51.54454,"lon":0.16591},{"naptanId":"490011497N","name":"Reede Road","lat":51.54611,"lon":0.1649},{"naptanId":"490014063N","name":"Victoria Road","lat":51.54805,"lon":0.1632},{"naptanId":"490010704N","name":"Oxlow Lane","lat":51.55112,"lon":0.16087},{"naptanId":"490003410N","name":"Woodshire Road","lat":51.55459,"lon":0.15962},{"naptanId":"490004570N","name":"Bull Lane","lat":51.55797,"lon":0.15818},{"naptanId":"490007042N","name":"Cu London University / Rainham Rd North","lat":51.56007,"lon":0.15482},{"naptanId":"490005923R","name":"Cu London University / Wood Lane","lat":51.56238,"lon":0.1573},{"naptanId":"490003660E","name":"Barton Avenue","lat":51.5632,"lon":0.16161},{"naptanId":"490005381E","name":"Clayton Road","lat":51.56369,"lon":0.165},{"naptanId":"490009090E","name":"Leonard Avenue","lat":51.56513,"lon":0.17127},{"naptanId":"490011798N2","name":"Norwood Avenue","lat":51.56651,"lon":0.1762},{"naptanId":"490005834N","name":"Crow Lane","lat":51.56921,"lon":0.17503},{"naptanId":"490015408E","name":"Oldchurch Rise","lat":51.57062,"lon":0.17823},{"naptanId":"490011667HE","name":"Rom Valley Way","lat":51.57169,"lon":0.18199},{"naptanId":"490001243V","name":"Romford Station","lat":51.5745,"lon":0.18358},{"naptanId":"490014452P","name":"Western Road","lat":51.57683,"lon":0.18316},{"naptanId":"490011659H","name":"Romford Market","lat":51.58045,"lon":0.18192},{"naptanId":"490004467N1","name":"The Avenue","lat":51.58151,"lon":0.17696},{"naptanId":"490010764N","name":"Romford Bus Garage","lat":51.58289,"lon":0.17551},{"naptanId":"490011657N1","name":"Cedar Road","lat":51.5853,"lon":0.17281},{"naptanId":"490007918E","name":"Havering Road","lat":51.58747,"lon":0.17394},{"naptanId":"490003445E","name":"Ashmour Gardens","lat":51.58978,"lon":0.17731},{"naptanId":"490010973E","name":"Pettits Lane","lat":51.59173,"lon":0.18015},{"naptanId":"490007989N","name":"Heather Gardens","lat":51.59382,"lon":0.18067},{"naptanId":"490007988W","name":"Heather Close","lat":51.59516,"lon":0.17731},{"naptanId":"490009715N","name":"Mashiters Hill","lat":51.59702,"lon":0.17486},{"naptanId":"490010016N","name":"Moray Way","lat":51.59954,"lon":0.17716},{"naptanId":"490007262N","name":"Gobions Avenue","lat":51.60145,"lon":0.174},{"naptanId":"490003491E","name":"Avelon Road","lat":51.60362,"lon":0.1763},{"naptanId":"490005032E","name":"Chase Cross","lat":51.60391,"lon":0.17925}]},{"routeId":"104","stops":[{"naptanId":"490006317C","name":"Beckton Bus Station","lat":51.51431,"lon":0.05935},{"naptanId":"490013691F","name":"Tollgate Road","lat":51.51683,"lon":0.06012},{"naptanId":"490003747N","name":"Albatross Close","lat":51.5195,"lon":0.05951},{"naptanId":"490009348N","name":"Lonsdale Avenue","lat":51.5216,"lon":0.0581},{"naptanId":"490007408W","name":"Greatfield Avenue","lat":51.52173,"lon":0.05661},{"naptanId":"490011902W","name":"Sandford Road","lat":51.52195,"lon":0.05225},{"naptanId":"490009349W","name":"Lonsdale Close","lat":51.52256,"lon":0.04754},{"naptanId":"490009346W","name":"Hatherley Gardens","lat":51.5233,"lon":0.04183},{"naptanId":"490010202N","name":"New City Road","lat":51.52488,"lon":0.03927},{"naptanId":"490014724N","name":"Wilson Road","lat":51.5276,"lon":0.03854},{"naptanId":"490003151R","name":"Barking Road","lat":51.52974,"lon":0.03741},{"naptanId":"490015134N","name":"Upton Park / Boleyn","lat":51.5309,"lon":0.03762},{"naptanId":"490013833E","name":"Tudor Road","lat":51.53338,"lon":0.03629},{"naptanId":"490000245A","name":"Upton Park Station","lat":51.53467,"lon":0.03538},{"naptanId":"490011052N","name":"Plashet Road","lat":51.53667,"lon":0.03482},{"naptanId":"490010909W","name":"Penge Road","lat":51.53737,"lon":0.0328},{"naptanId":"490009440W","name":"Churston Avenue","lat":51.53739,"lon":0.02829},{"naptanId":"490012582W","name":"St Antony's Road","lat":51.5372,"lon":0.02605},{"naptanId":"490013957W","name":"Upton Lane","lat":51.53677,"lon":0.02042},{"naptanId":"490010796W","name":"Park Road","lat":51.53694,"lon":0.01849},{"naptanId":"490003309W","name":"Amity Road","lat":51.53708,"lon":0.01331},{"naptanId":"490006045W","name":"Stratford Park","lat":51.53716,"lon":0.00854},{"naptanId":"490014466N","name":"Paul Street","lat":51.53812,"lon":0.00541},{"naptanId":"490012903K","name":"Stratford Broadway","lat":51.54057,"lon":0.00252},{"naptanId":"490012904N","name":"Stratford Bus Station","lat":51.54144,"lon":-0.00238}]},{"routeId":"105","stops":[{"naptanId":"4900801619","name":"Heathrow Central Bus Station","lat":51.47137,"lon":-0.45346},{"naptanId":"490010245N","name":"Newport Road","lat":51.48033,"lon":-0.45958},{"naptanId":"490012177E","name":"Sipson Way / Blunts Avenue","lat":51.4814,"lon":-0.45502},{"naptanId":"490012176E","name":"Nene Road","lat":51.48132,"lon":-0.44824},{"naptanId":"490004139E","name":"Bolton's Lane","lat":51.48117,"lon":-0.44484},{"naptanId":"490010251G","name":"New Road","lat":51.48097,"lon":-0.43919},{"naptanId":"490007811C","name":"Harlington Corner","lat":51.48074,"lon":-0.43309},{"naptanId":"490015397E","name":"Nobel Drive","lat":51.4808,"lon":-0.42652},{"naptanId":"490010677W2","name":"Oxford Avenue","lat":51.48106,"lon":-0.42263},{"naptanId":"490013596E","name":"Craneswater","lat":51.48131,"lon":-0.41974},{"naptanId":"490005704E","name":"Waye Avenue","lat":51.48008,"lon":-0.41203},{"naptanId":"490013235N","name":"The Avenue","lat":51.48058,"lon":-0.41055},{"naptanId":"490013494N","name":"The Parkway","lat":51.48325,"lon":-0.40919},{"naptanId":"490005703N","name":"Cranford Community School","lat":51.48717,"lon":-0.40527},{"naptanId":"490008113N","name":"Heston Centre","lat":51.49332,"lon":-0.40232},{"naptanId":"490007802N","name":"Navigator Park","lat":51.49706,"lon":-0.40108},{"naptanId":"490012242E","name":"Wentworth Road","lat":51.49737,"lon":-0.39976},{"naptanId":"490012133E","name":"Brent Road","lat":51.49789,"lon":-0.39508},{"naptanId":"490006056E","name":"Derley Road","lat":51.49914,"lon":-0.39136},{"naptanId":"490013052E","name":"Sussex Road","lat":51.50046,"lon":-0.38797},{"naptanId":"490014162E","name":"Waltham Road","lat":51.50078,"lon":-0.38485},{"naptanId":"490008833E","name":"King Street","lat":51.50138,"lon":-0.38263},{"naptanId":"490013388L","name":"The Green","lat":51.5029,"lon":-0.38101},{"naptanId":"490010754P","name":"Park Avenue","lat":51.50757,"lon":-0.37832},{"naptanId":"490012241N","name":"Southall Broadway","lat":51.51037,"lon":-0.37612},{"naptanId":"490014102E","name":"Lady Margaret Road / Southall Broadway","lat":51.51216,"lon":-0.37564},{"naptanId":"490010317C","name":"North Avenue","lat":51.51444,"lon":-0.3756},{"naptanId":"490004807A","name":"North Road","lat":51.51582,"lon":-0.37294},{"naptanId":"490008790Z","name":"Kingsley Avenue","lat":51.51511,"lon":-0.36905},{"naptanId":"490009712X","name":"Masefield Avenue","lat":51.51527,"lon":-0.3647},{"naptanId":"490006132W","name":"Telford Road","lat":51.51636,"lon":-0.36611},{"naptanId":"490006131N","name":"Dormers Avenue","lat":51.51841,"lon":-0.36866},{"naptanId":"490005613N","name":"Allenby Road","lat":51.51957,"lon":-0.3685},{"naptanId":"490011824E","name":"Rutland Road","lat":51.52283,"lon":-0.36964},{"naptanId":"490003435E","name":"Ash Grove","lat":51.52458,"lon":-0.36474},{"naptanId":"490013018N","name":"Sunnycroft Road","lat":51.52576,"lon":-0.36511},{"naptanId":"490003518N","name":"Avon Road","lat":51.52902,"lon":-0.36751},{"naptanId":"490011786N","name":"Ruislip Road","lat":51.53163,"lon":-0.3664},{"naptanId":"490006369E","name":"Eastmead Avenue","lat":51.52994,"lon":-0.36362},{"naptanId":"490010897E1","name":"Pembroke Road","lat":51.52868,"lon":-0.35928},{"naptanId":"490007446C","name":"Greenford Broadway","lat":51.52803,"lon":-0.35407},{"naptanId":"490007441F","name":"Ruislip Road East","lat":51.52833,"lon":-0.35202},{"naptanId":"490005626N","name":"Costons Lane","lat":51.53137,"lon":-0.35007},{"naptanId":"490005687N","name":"Cowgate Road","lat":51.53516,"lon":-0.34722},{"naptanId":"490008485N","name":"Ingram Way / Bridge Hotel","lat":51.53778,"lon":-0.34541},{"naptanId":"490013906N","name":"Uneeda Drive","lat":51.53993,"lon":-0.34431},{"naptanId":"490000092W1","name":"Greenford Station","lat":51.54268,"lon":-0.34484}]},{"routeId":"106","stops":[{"naptanId":"490016619N","name":"Cavell Street","lat":51.51854,"lon":-0.05756},{"naptanId":"490007978N","name":"Darling Row","lat":51.52163,"lon":-0.05589},{"naptanId":"490004945N","name":"Cephas Street","lat":51.52312,"lon":-0.05526},{"naptanId":"490013648S","name":"Three Colts Lane","lat":51.52527,"lon":-0.05507},{"naptanId":"490000022C","name":"Bethnal Green Station","lat":51.52684,"lon":-0.05562},{"naptanId":"490010555G","name":"Old Ford Road","lat":51.52986,"lon":-0.0562},{"naptanId":"490001044M","name":"Cambridge Heath Station","lat":51.53209,"lon":-0.05709},{"naptanId":"490003314R","name":"Mare Street / Victoria Park Road","lat":51.53507,"lon":-0.05733},{"naptanId":"490012442N","name":"King Edward's Road","lat":51.53849,"lon":-0.05722},{"naptanId":"490014373LC","name":"Mare Street / Well Street","lat":51.54057,"lon":-0.05553},{"naptanId":"490012462N","name":"St Thomas's Square","lat":51.54255,"lon":-0.05544},{"naptanId":"490007626A","name":"Hackney Town Hall","lat":51.54526,"lon":-0.05543},{"naptanId":"490001127K","name":"Hackney Central Station","lat":51.54802,"lon":-0.0571},{"naptanId":"490001128L","name":"Amhurst Road / Hackney Downs Station","lat":51.54865,"lon":-0.05841},{"naptanId":"490010151R","name":"Mare Street / Narrow Way","lat":51.54957,"lon":-0.05543},{"naptanId":"490007619U","name":"Hackney Baths","lat":51.55096,"lon":-0.0525},{"naptanId":"490007220Z","name":"Glenarm Road","lat":51.5518,"lon":-0.05218},{"naptanId":"490009195N","name":"Clapton Girls' Academy","lat":51.55349,"lon":-0.05346},{"naptanId":"490005340H","name":"Clapton Pond","lat":51.55556,"lon":-0.05505},{"naptanId":"490009035M","name":"Lea Bridge Roundabout","lat":51.55755,"lon":-0.05603},{"naptanId":"490004451O","name":"Upper Clapton Road / Brooke Road","lat":51.55977,"lon":-0.05658},{"naptanId":"490001070N","name":"Clapton Station","lat":51.56179,"lon":-0.05747},{"naptanId":"490011519W","name":"Clapton Library","lat":51.56261,"lon":-0.05939},{"naptanId":"490007156W","name":"Geldeston Road","lat":51.56275,"lon":-0.06317},{"naptanId":"490012837J","name":"Stoke Newington Common","lat":51.56206,"lon":-0.06855},{"naptanId":"490004452T","name":"Stoke Newington High St / Brooke Road","lat":51.56053,"lon":-0.07274},{"naptanId":"490005312X","name":"Stoke Newington Church Street","lat":51.5627,"lon":-0.07356},{"naptanId":"490001273E","name":"Stoke Newington Station","lat":51.56461,"lon":-0.07343},{"naptanId":"490009208A","name":"Listria Park","lat":51.5657,"lon":-0.0749},{"naptanId":"490012572W","name":"Heathland Road","lat":51.56688,"lon":-0.08058},{"naptanId":"490009365W","name":"Lordship Road","lat":51.56602,"lon":-0.08388},{"naptanId":"490011312W","name":"Queen Elizabeth's Walk","lat":51.56497,"lon":-0.088},{"naptanId":"490003100W","name":"Brownswood Road / Green Lanes","lat":51.56367,"lon":-0.09299},{"naptanId":"490011332W","name":"Queen's Drive","lat":51.56275,"lon":-0.09579},{"naptanId":"490009986V","name":"Monsell Road","lat":51.56177,"lon":-0.1},{"naptanId":"490011623P","name":"Rock Street","lat":51.56389,"lon":-0.10459},{"naptanId":"490000083AP","name":"Finsbury Park Interchange","lat":51.56425,"lon":-0.10571}]},{"routeId":"107","stops":[{"naptanId":"490001201A","name":"New Barnet Station","lat":51.64893,"lon":-0.17339},{"naptanId":"490010192W","name":"New Barnet Station  / Station Road","lat":51.6494,"lon":-0.17679},{"naptanId":"490014253W","name":"Warwick Road","lat":51.64824,"lon":-0.18163},{"naptanId":"490015143W","name":"Barnet Everyman Cinema","lat":51.6468,"lon":-0.18631},{"naptanId":"490013897N","name":"Barnet Hill / Underhill","lat":51.64814,"lon":-0.19136},{"naptanId":"490000107Q","name":"High Barnet Station","lat":51.65008,"lon":-0.19484},{"naptanId":"490003634K","name":"Barnet Church","lat":51.65274,"lon":-0.19931},{"naptanId":"490015142E","name":"Barnet Church / Wood Street","lat":51.65297,"lon":-0.20243},{"naptanId":"490009584W","name":"Manor Road","lat":51.65287,"lon":-0.20528},{"naptanId":"490013909W","name":"Union Street","lat":51.65292,"lon":-0.20846},{"naptanId":"490003636B3","name":"Barnet Hospital / Queens Road","lat":51.65282,"lon":-0.2139},{"naptanId":"490013231W","name":"Galley Lane","lat":51.65251,"lon":-0.21838},{"naptanId":"490007117W","name":"Garden Close","lat":51.65016,"lon":-0.22334},{"naptanId":"490011379W","name":"Quinta Drive","lat":51.64939,"lon":-0.22727},{"naptanId":"490011744W","name":"Rowley Green Road","lat":51.6479,"lon":-0.23109},{"naptanId":"490007215W","name":"Glebe Lane","lat":51.64561,"lon":-0.23592},{"naptanId":"490013368W","name":"Brickfield Lane","lat":51.64227,"lon":-0.24215},{"naptanId":"490012721W2","name":"Stirling Corner / Barnet Road","lat":51.64222,"lon":-0.25319},{"naptanId":"210021002020","name":"Stirling Corner","lat":51.64371,"lon":-0.257137},{"naptanId":"210021002040","name":"Ashley Drive","lat":51.645295,"lon":-0.261528},{"naptanId":"210021004690","name":"Dacre Gardens","lat":51.647159,"lon":-0.258638},{"naptanId":"210021002200","name":"Ripon Way","lat":51.649156,"lon":-0.2557},{"naptanId":"210021002210","name":"Warren Grove","lat":51.651314,"lon":-0.255111},{"naptanId":"210021002220","name":"Kenilworth Drive","lat":51.65464,"lon":-0.25439},{"naptanId":"210021002230","name":"Chester Road","lat":51.657663,"lon":-0.256313},{"naptanId":"210021002530","name":"Warwick House","lat":51.659349,"lon":-0.256002},{"naptanId":"210021002540","name":"Studio Way","lat":51.659912,"lon":-0.263051},{"naptanId":"210021002550","name":"Hertsmere Civic Offices","lat":51.658988,"lon":-0.268103},{"naptanId":"210021002670","name":"Elstree Studios","lat":51.658309,"lon":-0.270182},{"naptanId":"210021002665","name":"Borehamwood Tesco","lat":51.657205,"lon":-0.270368},{"naptanId":"210021002680","name":"Furzehill Road","lat":51.65545,"lon":-0.276377},{"naptanId":"210021002690","name":"Glenhaven Avenue","lat":51.654348,"lon":-0.278501},{"naptanId":"210021004250","name":"Elstree & Borehamwood Station","lat":51.653341,"lon":-0.27971},{"naptanId":"210021002700","name":"Deacons Hill Road","lat":51.652499,"lon":-0.282416},{"naptanId":"210021002710","name":"Barham Avenue","lat":51.651846,"lon":-0.285737},{"naptanId":"210021002720","name":"Knowl Way","lat":51.650245,"lon":-0.289382},{"naptanId":"210021002725","name":"Elstree Hill North","lat":51.649195,"lon":-0.296331},{"naptanId":"210021007800","name":"Watling Court","lat":51.644165,"lon":-0.298586},{"naptanId":"210021008160","name":"Rodgers Close","lat":51.64253,"lon":-0.299934},{"naptanId":"210021011800","name":"Sullivan Way","lat":51.639577,"lon":-0.302168},{"naptanId":"490011769S","name":"Royal National Orthopaedic Hospital","lat":51.63212,"lon":-0.30446},{"naptanId":"490011026S","name":"Pipers Green Lane","lat":51.62531,"lon":-0.29655},{"naptanId":"490020077S","name":"Brockley Avenue","lat":51.62285,"lon":-0.29384},{"naptanId":"490006432E","name":"Spur Road / London Academy","lat":51.62333,"lon":-0.28921},{"naptanId":"490010829E","name":"Parkside Drive","lat":51.62183,"lon":-0.27917},{"naptanId":"490006423S","name":"Edgwarebury Lane / Edgware Way","lat":51.6206,"lon":-0.27748},{"naptanId":"490006422S","name":"Edgwarebury Gardens","lat":51.61747,"lon":-0.27709},{"naptanId":"490000070G","name":"Edgware Station","lat":51.6134,"lon":-0.27552}]},{"routeId":"108","stops":[{"naptanId":"490009105V","name":"Lewisham Centre","lat":51.46122,"lon":-0.01053},{"naptanId":"490009239K","name":"Lockmead Road","lat":51.46282,"lon":-0.0084},{"naptanId":"490013561E","name":"The Squirrels","lat":51.46286,"lon":-0.00436},{"naptanId":"490012772E","name":"St Margaret's Church / Brandram Road","lat":51.46302,"lon":-0.00005},{"naptanId":"490004066B","name":"Blackheath Hospital","lat":51.46396,"lon":0.00696},{"naptanId":"490001029C","name":"Blackheath Station","lat":51.46515,"lon":0.00899},{"naptanId":"490011771G","name":"Royal Parade","lat":51.46767,"lon":0.00759},{"naptanId":"490010003K","name":"Montpelier Row","lat":51.46909,"lon":0.00969},{"naptanId":"490012711N","name":"St Germans Place","lat":51.4723,"lon":0.01369},{"naptanId":"490012109N","name":"Stratheden Road / Shooters Hill Road","lat":51.47415,"lon":0.01621},{"naptanId":"490004065BA","name":"Blackheath / Royal Standard","lat":51.47758,"lon":0.0191},{"naptanId":"490008854N","name":"Kirkside Road","lat":51.48179,"lon":0.01989},{"naptanId":"490001323A","name":"Westcombe Park Station","lat":51.48352,"lon":0.01969},{"naptanId":"490014436N","name":"Westerdale Road","lat":51.48499,"lon":0.01905},{"naptanId":"490011853W","name":"Millennium Leisure Park East","lat":51.48921,"lon":0.01569},{"naptanId":"490013356W","name":"Millennium Leisure Park West","lat":51.49001,"lon":0.01285},{"naptanId":"490009889Y","name":"Millennium Village South","lat":51.49198,"lon":0.01371},{"naptanId":"490009887W","name":"Millennium Village / Oval Square","lat":51.49407,"lon":0.01326},{"naptanId":"490010374C","name":"North Greenwich Station","lat":51.49965,"lon":0.00405},{"naptanId":"490004146L","name":"Boord Street","lat":51.49544,"lon":0.0078},{"naptanId":"490003701A","name":"Bazely Street / All Saints Dlr","lat":51.51116,"lon":-0.01209},{"naptanId":"490005222J","name":"Chrisp Street Market","lat":51.51192,"lon":-0.01374},{"naptanId":"490005608N","name":"Langdon Park Station","lat":51.51441,"lon":-0.0147},{"naptanId":"490010043N","name":"Fawe Street","lat":51.51654,"lon":-0.01604},{"naptanId":"490014101S1","name":"Cranwell Close","lat":51.52062,"lon":-0.01792},{"naptanId":"490002030N","name":"Devons Road Station","lat":51.52311,"lon":-0.01878},{"naptanId":"490011733N","name":"Rounton Road","lat":51.52526,"lon":-0.02004},{"naptanId":"490004209Y","name":"Bow Road","lat":51.52752,"lon":-0.02156},{"naptanId":"490002019A","name":"Bow Church Station","lat":51.52806,"lon":-0.02075},{"naptanId":"490004215M","name":"Bow Church","lat":51.52895,"lon":-0.01688},{"naptanId":"490009695MA","name":"Marshgate Lane","lat":51.53128,"lon":-0.0112},{"naptanId":"490003025E","name":"Warton Road","lat":51.53465,"lon":-0.00655},{"naptanId":"490020228N","name":"Gibbins Road","lat":51.53796,"lon":-0.0066},{"naptanId":"490020184S","name":"London Aquatics Centre","lat":51.53922,"lon":-0.00899},{"naptanId":"490019793S","name":"Stratford City Bus Station","lat":51.54332,"lon":-0.00397},{"naptanId":"490002268ZZ","name":"Stratford International Station","lat":51.54582,"lon":-0.00809}]},{"routeId":"109","stops":[{"naptanId":"490007523G","name":"Brixton Road / Brixton Police Station","lat":51.46539,"lon":-0.11372},{"naptanId":"490000031P","name":"Brixton Station","lat":51.46198,"lon":-0.11522},{"naptanId":"490011793S","name":"Rush Common","lat":51.45846,"lon":-0.11729},{"naptanId":"490004362S1","name":"Brixton Water Lane","lat":51.45634,"lon":-0.11833},{"naptanId":"490004101S","name":"Blenheim Gardens","lat":51.45406,"lon":-0.12},{"naptanId":"490008544S","name":"Jebb Avenue / Brixton Prison","lat":51.45221,"lon":-0.1212},{"naptanId":"490015218S","name":"New Park Road","lat":51.44882,"lon":-0.12366},{"naptanId":"490008310S","name":"Holmewood Road","lat":51.44706,"lon":-0.12421},{"naptanId":"490005234S","name":"Streatham Hill / Christchurch Road","lat":51.44429,"lon":-0.12442},{"naptanId":"490013186S","name":"Telford Avenue","lat":51.44201,"lon":-0.12441},{"naptanId":"490001281D","name":"Streatham Hill Stn  / Streatham Hill","lat":51.4394,"lon":-0.12583},{"naptanId":"490009076F","name":"Leigham Court Road","lat":51.43718,"lon":-0.12717},{"naptanId":"490010078J","name":"Mount Ephraim Road","lat":51.43593,"lon":-0.12774},{"naptanId":"490008765L","name":"Kingscourt Road","lat":51.43444,"lon":-0.12796},{"naptanId":"490003758N","name":"Becmead Avenue","lat":51.43235,"lon":-0.12885},{"naptanId":"490012761U","name":"St Leonard's Church","lat":51.42856,"lon":-0.1308},{"naptanId":"490001279S2","name":"Streatham Station","lat":51.4253,"lon":-0.13064},{"naptanId":"490012929S5","name":"Streatham United Reformed Church","lat":51.42401,"lon":-0.12998},{"naptanId":"490012924S","name":"Streatham Common / Greyhound Lane","lat":51.42111,"lon":-0.12849},{"naptanId":"490003389S","name":"Arragon Gardens","lat":51.41711,"lon":-0.12615},{"naptanId":"490008080L","name":"Hermitage Lane","lat":51.41487,"lon":-0.12383},{"naptanId":"490001209A","name":"Norbury Station","lat":51.41307,"lon":-0.12423},{"naptanId":"490012715D","name":"St Helen's Road","lat":51.40992,"lon":-0.1223},{"naptanId":"490013884F","name":"Tylecroft Road","lat":51.40822,"lon":-0.12174},{"naptanId":"490006414S","name":"Ederline Avenue","lat":51.40458,"lon":-0.11968},{"naptanId":"490007099S","name":"London Road / Galpins Road","lat":51.40041,"lon":-0.11769},{"naptanId":"490008030S","name":"Heathview Road","lat":51.39853,"lon":-0.11643},{"naptanId":"490008939S","name":"Langdale Road","lat":51.39719,"lon":-0.11562},{"naptanId":"490005501T","name":"Colliers Water Lane","lat":51.39539,"lon":-0.11476},{"naptanId":"490013632G","name":"Thornton Heath Pond","lat":51.39236,"lon":-0.11334},{"naptanId":"490006250E","name":"Dunheved Road North","lat":51.39128,"lon":-0.11252},{"naptanId":"490009732C","name":"Croydon University Hospital","lat":51.38877,"lon":-0.11137},{"naptanId":"490004368S","name":"Broad Green Avenue","lat":51.38545,"lon":-0.1098},{"naptanId":"490004367S","name":"Sumner Road","lat":51.3827,"lon":-0.10696},{"naptanId":"490005856W4","name":"Montague Road","lat":51.38127,"lon":-0.10554},{"naptanId":"490001324W6","name":"West Croydon Station","lat":51.37875,"lon":-0.10313},{"naptanId":"490011116W8","name":"Poplar Walk","lat":51.3781,"lon":-0.10125},{"naptanId":"490014614E10","name":"Whitgift Centre","lat":51.3769,"lon":-0.09844},{"naptanId":"490010839C4","name":"Park Street","lat":51.37343,"lon":-0.09822}]},{"routeId":"11","stops":[{"naptanId":"490000254A","name":"Waterloo Station   / Upper Taxi Road","lat":51.50381,"lon":-0.11351},{"naptanId":"490000254W","name":"Waterloo Station   / York Road","lat":51.50353,"lon":-0.11526},{"naptanId":"490005646G","name":"County Hall","lat":51.50205,"lon":-0.11658},{"naptanId":"490005646D","name":"St Thomas' Hospital / County Hall","lat":51.50072,"lon":-0.11937},{"naptanId":"490015048W","name":"Parliament Square / Westminster Abbey","lat":51.50016,"lon":-0.1269},{"naptanId":"490010260SD","name":"St James's Park Station","lat":51.49758,"lon":-0.1348},{"naptanId":"490003384SB","name":"Westminster City Hall","lat":51.49715,"lon":-0.13745},{"naptanId":"490014496M","name":"Westminster Cathedral / Victoria Stn","lat":51.4966,"lon":-0.1411},{"naptanId":"490014050R","name":"Victoria Station","lat":51.49577,"lon":-0.14539},{"naptanId":"490014051V","name":"Victoria Coach Station","lat":51.49209,"lon":-0.14804},{"naptanId":"490006399W","name":"Pimlico Road / Ebury Bridge Road","lat":51.49074,"lon":-0.15163},{"naptanId":"490011763N","name":"Royal Hospital Road","lat":51.48995,"lon":-0.15647},{"naptanId":"490000206K","name":"Sloane Square Station","lat":51.49145,"lon":-0.15749},{"naptanId":"490006224G","name":"Duke of York Square","lat":51.49114,"lon":-0.1605},{"naptanId":"490014150KA","name":"Walpole Street","lat":51.4902,"lon":-0.16227},{"naptanId":"490009666KB","name":"Markham Street","lat":51.489,"lon":-0.16476},{"naptanId":"490005073KC","name":"Chelsea Old Town Hall","lat":51.48831,"lon":-0.16663},{"naptanId":"490004809KD","name":"Carlyle Square","lat":51.48643,"lon":-0.17132},{"naptanId":"490015145W","name":"Beaufort Street","lat":51.48473,"lon":-0.1751},{"naptanId":"490005076W","name":"Edith Grove / Worlds End","lat":51.48226,"lon":-0.17923},{"naptanId":"490009370W","name":"Worlds End Health Centre","lat":51.48057,"lon":-0.18483},{"naptanId":"490011788W","name":"Rumbold Road","lat":51.47853,"lon":-0.18864},{"naptanId":"490013888N","name":"Tyrawley Road","lat":51.47747,"lon":-0.19231},{"naptanId":"490007057T","name":"Fulham Town Hall","lat":51.47897,"lon":-0.19477}]},{"routeId":"110","stops":[{"naptanId":"490007705C","name":"Hammersmith Bus Station","lat":51.49228,"lon":-0.22388},{"naptanId":"490008801P","name":"Livat Hammersmith Shopping Centre","lat":51.49266,"lon":-0.22728},{"naptanId":"490007711WA","name":"Hammersmith Town Hall","lat":51.49251,"lon":-0.23286},{"naptanId":"490011594W","name":"Ravenscourt Park Station","lat":51.4929,"lon":-0.23583},{"naptanId":"490012533W","name":"Ravenscourt Park","lat":51.49346,"lon":-0.24042},{"naptanId":"490007272H","name":"Goldhawk Road","lat":51.49337,"lon":-0.24409},{"naptanId":"490012521PP","name":"Stamford Brook Bus Garage","lat":51.49335,"lon":-0.24778},{"naptanId":"490013850RR","name":"Chiswick Lane","lat":51.49274,"lon":-0.25348},{"naptanId":"490005210SS","name":"Duke Road","lat":51.49244,"lon":-0.25976},{"naptanId":"490000048CV","name":"Turnham Green Church","lat":51.49258,"lon":-0.26622},{"naptanId":"490005211W","name":"Chiswick Road","lat":51.49288,"lon":-0.27063},{"naptanId":"490000094A","name":"Gunnersbury Station","lat":51.49227,"lon":-0.27518},{"naptanId":"490010687J","name":"Power Road","lat":51.49199,"lon":-0.27967},{"naptanId":"490004290L","name":"Brentford Fountain Leisure Centre","lat":51.49047,"lon":-0.28458},{"naptanId":"490008688P","name":"Kew Bridge","lat":51.48823,"lon":-0.28739},{"naptanId":"490008696M","name":"Kew Green","lat":51.48486,"lon":-0.28728},{"naptanId":"490010048K","name":"Mortlake Road","lat":51.48238,"lon":-0.28703},{"naptanId":"490008695G","name":"Kew Gardens Road","lat":51.47989,"lon":-0.28763},{"naptanId":"490000125B","name":"Kew Gardens Station","lat":51.47662,"lon":-0.28664},{"naptanId":"490009013S","name":"Lawn Crescent","lat":51.47433,"lon":-0.28658},{"naptanId":"490006220S","name":"Dudley Road","lat":51.47155,"lon":-0.28719},{"naptanId":"490011403S","name":"Gainsborough Road","lat":51.46845,"lon":-0.28817},{"naptanId":"490009547SB","name":"Manor Circus","lat":51.46698,"lon":-0.29037},{"naptanId":"490012048SK","name":"Sheendale Road","lat":51.4661,"lon":-0.29292},{"naptanId":"490011557W","name":"Richmond Circus","lat":51.46507,"lon":-0.29786},{"naptanId":"490000192S","name":"Richmond Station","lat":51.46324,"lon":-0.30217},{"naptanId":"490013511F","name":"The Quadrant","lat":51.46193,"lon":-0.30294},{"naptanId":"490011556J","name":"Richmond Bus Station","lat":51.4591,"lon":-0.30458},{"naptanId":"490005755W","name":"Cresswell Road","lat":51.45611,"lon":-0.30919},{"naptanId":"490011109W","name":"Poplar Court","lat":51.45474,"lon":-0.3124},{"naptanId":"490011922W","name":"Sandycoombe Road","lat":51.45421,"lon":-0.31641},{"naptanId":"490001270B","name":"St Margarets Station","lat":51.45545,"lon":-0.32055},{"naptanId":"490002233Y","name":"St Stephens C of E Primary School","lat":51.45703,"lon":-0.32424},{"naptanId":"490002234Y","name":"Cole Park Road","lat":51.45601,"lon":-0.3296},{"naptanId":"490002235Y","name":"Marlow Crescent","lat":51.45432,"lon":-0.33522},{"naptanId":"490013873W","name":"Twickenham Stadium","lat":51.45467,"lon":-0.3398},{"naptanId":"490013875W","name":"Tayben Avenue","lat":51.454,"lon":-0.34306},{"naptanId":"490008869W","name":"Kneller Hall","lat":51.45368,"lon":-0.34722},{"naptanId":"490014241W","name":"Warren Road","lat":51.4538,"lon":-0.35215},{"naptanId":"490014629D","name":"The Admiral Nelson / Whitton","lat":51.45355,"lon":-0.35649},{"naptanId":"490014636S","name":"Whitton High Street","lat":51.45179,"lon":-0.35792},{"naptanId":"490001336B","name":"Whitton Station","lat":51.44922,"lon":-0.35811},{"naptanId":"490010866S","name":"Pauline Crescent","lat":51.4467,"lon":-0.35958},{"naptanId":"490011836W","name":"Ryecroft Avenue","lat":51.44497,"lon":-0.36228},{"naptanId":"490009310W","name":"Longford Road","lat":51.44542,"lon":-0.36867},{"naptanId":"490005151W","name":"Cheyne Avenue","lat":51.44722,"lon":-0.37318},{"naptanId":"490005124W","name":"Chester Avenue","lat":51.44897,"lon":-0.37755},{"naptanId":"490007767N","name":"Godfrey Way","lat":51.4507,"lon":-0.37904},{"naptanId":"490012168N","name":"Simpson Road","lat":51.45399,"lon":-0.37572},{"naptanId":"490010173N","name":"Nelson Road","lat":51.4575,"lon":-0.37214},{"naptanId":"490005798W","name":"Cromwell Road","lat":51.45981,"lon":-0.36978},{"naptanId":"490008126EB","name":"Hibernia Road","lat":51.46208,"lon":-0.36747},{"naptanId":"490003854E","name":"Bell Road","lat":51.46473,"lon":-0.36475},{"naptanId":"490007573J","name":"Grove Road","lat":51.46686,"lon":-0.36294},{"naptanId":"490013777O","name":"Treaty Centre","lat":51.46752,"lon":-0.36212},{"naptanId":"490008399K","name":"Hounslow High Street","lat":51.46945,"lon":-0.35801},{"naptanId":"490015241C","name":"Hounslow Bus Station","lat":51.47045,"lon":-0.35565}]},{"routeId":"111","stops":[{"naptanId":"490005800A7","name":"Cromwell Road Bus Station","lat":51.41242,"lon":-0.29922},{"naptanId":"490001173R","name":"Kingston Station","lat":51.41253,"lon":-0.30277},{"naptanId":"490003909P2","name":"Kingston / Wood Street","lat":51.41115,"lon":-0.3056},{"naptanId":"490007741D","name":"Church Grove /  the King's Field","lat":51.41065,"lon":-0.31302},{"naptanId":"490010777W","name":"Park House","lat":51.40652,"lon":-0.33169},{"naptanId":"490007727B","name":"Chestnut Avenue","lat":51.40663,"lon":-0.33826},{"naptanId":"490007713E","name":"Hampton Court Green","lat":51.40577,"lon":-0.34299},{"naptanId":"490007734W","name":"Hampton Lodge","lat":51.40709,"lon":-0.34533},{"naptanId":"490013570W","name":"St Alban's Riverside","lat":51.40959,"lon":-0.35076},{"naptanId":"490007125W","name":"Garrick Villa","lat":51.41184,"lon":-0.35702},{"naptanId":"490007724W","name":"Hampton / Thames Street","lat":51.41283,"lon":-0.36215},{"naptanId":"490007735W","name":"Hampton & Richmond Borough F C","lat":51.41469,"lon":-0.36584},{"naptanId":"490001132B","name":"Hampton Station","lat":51.41567,"lon":-0.372},{"naptanId":"490011238N","name":"Priory Road","lat":51.41869,"lon":-0.37403},{"naptanId":"490008299N","name":"Holly Bush Lane","lat":51.42137,"lon":-0.37522},{"naptanId":"490005665N","name":"Courtlands Avenue","lat":51.42289,"lon":-0.37614},{"naptanId":"490010460N","name":"Nurserylands Shopping Centre","lat":51.42541,"lon":-0.37682},{"naptanId":"490003064E1","name":"Acacia Road","lat":51.42592,"lon":-0.37204},{"naptanId":"490011472W","name":"Hampton School","lat":51.42828,"lon":-0.37394},{"naptanId":"490007113W","name":"Garden Close","lat":51.42952,"lon":-0.37634},{"naptanId":"490007115N","name":"Garden Court","lat":51.43117,"lon":-0.37855},{"naptanId":"490013228N","name":"Hampton Lane","lat":51.43294,"lon":-0.38386},{"naptanId":"490013103W","name":"Swan Close","lat":51.43304,"lon":-0.38644},{"naptanId":"490003717W","name":"New Close","lat":51.43105,"lon":-0.38866},{"naptanId":"490013110N","name":"Green Lane","lat":51.43129,"lon":-0.39109},{"naptanId":"490003718N","name":"Bear Road Flyover","lat":51.43274,"lon":-0.39215},{"naptanId":"490010807N","name":"Park Road","lat":51.43607,"lon":-0.3916},{"naptanId":"490013970N1","name":"Uxbridge Road","lat":51.43996,"lon":-0.3898},{"naptanId":"490009221N","name":"Little Park Drive","lat":51.44291,"lon":-0.38697},{"naptanId":"490011940E","name":"Pevensey Road","lat":51.44423,"lon":-0.38582},{"naptanId":"490006485N","name":"Ellerman Avenue","lat":51.44723,"lon":-0.38261},{"naptanId":"490007767N","name":"Godfrey Way","lat":51.4507,"lon":-0.37904},{"naptanId":"490012168N","name":"Simpson Road","lat":51.45399,"lon":-0.37572},{"naptanId":"490010173N","name":"Nelson Road","lat":51.4575,"lon":-0.37214},{"naptanId":"490005798W","name":"Cromwell Road","lat":51.45981,"lon":-0.36978},{"naptanId":"490008126EB","name":"Hibernia Road","lat":51.46208,"lon":-0.36747},{"naptanId":"490003854E","name":"Bell Road","lat":51.46473,"lon":-0.36475},{"naptanId":"490007573J","name":"Grove Road","lat":51.46686,"lon":-0.36294},{"naptanId":"490013777O","name":"Treaty Centre","lat":51.46752,"lon":-0.36212},{"naptanId":"490008399K","name":"Hounslow High Street","lat":51.46945,"lon":-0.35801},{"naptanId":"490015241C","name":"Hounslow Bus Station","lat":51.47045,"lon":-0.35565},{"naptanId":"490000117E","name":"Hounslow East Station","lat":51.47294,"lon":-0.35676},{"naptanId":"490006028N","name":"Denbigh Road","lat":51.47595,"lon":-0.36025},{"naptanId":"490007428N","name":"Great West Road","lat":51.47843,"lon":-0.364},{"naptanId":"490007427N","name":"Sutton Road","lat":51.47953,"lon":-0.36494},{"naptanId":"490012443N","name":"St Leonard's Church","lat":51.48425,"lon":-0.37237},{"naptanId":"490010221W","name":"New Heston Road","lat":51.48495,"lon":-0.37756},{"naptanId":"490005705S","name":"Cranford Lane","lat":51.48421,"lon":-0.38081},{"naptanId":"490008114W","name":"Heston Health Centre","lat":51.48333,"lon":-0.38215},{"naptanId":"490012229W","name":"Somerset Waye","lat":51.48378,"lon":-0.38742},{"naptanId":"490010365W","name":"Northfield Road","lat":51.4843,"lon":-0.39248},{"naptanId":"490008115W","name":"Harlech Gardens","lat":51.48508,"lon":-0.39843},{"naptanId":"490012243W","name":"Cranford Lane / Redwood Estate","lat":51.48486,"lon":-0.40384},{"naptanId":"490005706N","name":"Quinton Close","lat":51.48476,"lon":-0.40615},{"naptanId":"490013494S","name":"The Parkway","lat":51.48335,"lon":-0.40863},{"naptanId":"490013235S","name":"The Avenue","lat":51.4802,"lon":-0.41041},{"naptanId":"490005704W","name":"Waye Avenue","lat":51.48047,"lon":-0.41434},{"naptanId":"490013596W","name":"Craneswater","lat":51.481,"lon":-0.42081},{"naptanId":"490010677W1","name":"Oxford Avenue","lat":51.48066,"lon":-0.42515},{"naptanId":"490007811D","name":"Harlington Corner","lat":51.48058,"lon":-0.43562},{"naptanId":"490004149W","name":"Mondial Way","lat":51.48098,"lon":-0.44459},{"naptanId":"490012176W","name":"Nene Road","lat":51.48106,"lon":-0.44771},{"naptanId":"490008016S","name":"Heathrow Central Bus Station","lat":51.47154,"lon":-0.45259}]},{"routeId":"112","stops":[{"naptanId":"490015518E","name":"North Finchley Bus Station","lat":51.61334,"lon":-0.17594},{"naptanId":"490005229S","name":"Christchurch Avenue","lat":51.61101,"lon":-0.17544},{"naptanId":"490015327S","name":"Granville Road","lat":51.60796,"lon":-0.17503},{"naptanId":"490009082S","name":"Leisure Way","lat":51.60556,"lon":-0.1749},{"naptanId":"490012419S","name":"Squires Lane","lat":51.60212,"lon":-0.17362},{"naptanId":"490009321W","name":"Long Lane","lat":51.59762,"lon":-0.17854},{"naptanId":"490006338W","name":"East End Road","lat":51.59346,"lon":-0.18599},{"naptanId":"490003825W","name":"Beechwood Drive","lat":51.58983,"lon":-0.1936},{"naptanId":"490008069W","name":"Henlys Corner","lat":51.58957,"lon":-0.19822},{"naptanId":"490012257W","name":"Southbourne Crescent","lat":51.58787,"lon":-0.20771},{"naptanId":"490004323S","name":"Bridge Lane","lat":51.58599,"lon":-0.20955},{"naptanId":"490007269W","name":"Golders Green Road","lat":51.58015,"lon":-0.21269},{"naptanId":"490007994Y","name":"Brent Cross Station","lat":51.5778,"lon":-0.21542},{"naptanId":"490011191F","name":"Prince Charles Drive","lat":51.57689,"lon":-0.21993},{"naptanId":"490004282B","name":"Brent Cross Shopping Centre","lat":51.57574,"lon":-0.22326},{"naptanId":"490013675S","name":"Tilling Road","lat":51.57267,"lon":-0.22555},{"naptanId":"490012589W","name":"Staples Corner","lat":51.57033,"lon":-0.23349},{"naptanId":"490014274W","name":"Waterloo Road","lat":51.56976,"lon":-0.23712},{"naptanId":"490004483W","name":"Brook Road","lat":51.56789,"lon":-0.24267},{"naptanId":"490007991W","name":"Heather Road","lat":51.56662,"lon":-0.24626},{"naptanId":"490003061S","name":"Randall Avenue","lat":51.56515,"lon":-0.24994},{"naptanId":"490010330JJ","name":"Neasden Underpass","lat":51.56107,"lon":-0.25277},{"naptanId":"490014082LL","name":"Village Way","lat":51.55676,"lon":-0.25305},{"naptanId":"490014856G","name":"Woodheyes Road","lat":51.55225,"lon":-0.25756},{"naptanId":"490004286M","name":"Brentfield Road","lat":51.55105,"lon":-0.26155},{"naptanId":"490010313S","name":"Normansmead","lat":51.54963,"lon":-0.2626},{"naptanId":"490005538W","name":"Conduit Way","lat":51.54757,"lon":-0.26515},{"naptanId":"490007855H","name":"Harrow Road","lat":51.54502,"lon":-0.27119},{"naptanId":"490010337S","name":"Point Place","lat":51.54509,"lon":-0.27389},{"naptanId":"490000224A","name":"Stonebridge Park Station","lat":51.54403,"lon":-0.27512},{"naptanId":"490003914S","name":"Beresford Avenue","lat":51.54067,"lon":-0.27782},{"naptanId":"490003029W","name":"Abbey Road","lat":51.53867,"lon":-0.27916},{"naptanId":"490008521W","name":"Iveagh Avenue","lat":51.53709,"lon":-0.28376},{"naptanId":"490004291W","name":"Brentmead Gardens","lat":51.53505,"lon":-0.28799},{"naptanId":"490010751G","name":"Park Avenue","lat":51.53337,"lon":-0.29038},{"naptanId":"490000099J","name":"Hanger Lane Station","lat":51.53052,"lon":-0.29258},{"naptanId":"490015498P","name":"Ashbourne Road","lat":51.52915,"lon":-0.29234},{"naptanId":"490008210S","name":"Hillcrest Road","lat":51.52399,"lon":-0.29185},{"naptanId":"490003477S","name":"Audley Road","lat":51.5205,"lon":-0.29139},{"naptanId":"490000158A","name":"North Ealing Station","lat":51.51764,"lon":-0.29124},{"naptanId":"49002155YY","name":"Westbury Road","lat":51.51605,"lon":-0.29852},{"naptanId":"490007913D","name":"Haven Green / Ealing Broadway Stn","lat":51.51518,"lon":-0.30343}]},{"routeId":"113","stops":[{"naptanId":"490000144L","name":"Marble Arch Station","lat":51.51368,"lon":-0.15675},{"naptanId":"490010622BA","name":"Orchard Street / Selfridges","lat":51.51461,"lon":-0.15422},{"naptanId":"490002121Z","name":"Portman Square","lat":51.51674,"lon":-0.15513},{"naptanId":"490011124F","name":"York Street","lat":51.52066,"lon":-0.15693},{"naptanId":"490000011ZZ","name":"Baker Street Station","lat":51.52285,"lon":-0.15794},{"naptanId":"490002122Z","name":"Park Road / Ivor Place","lat":51.52509,"lon":-0.16033},{"naptanId":"490003269N","name":"Alpha Close","lat":51.52709,"lon":-0.16415},{"naptanId":"490010816N","name":"London Central Mosque","lat":51.52925,"lon":-0.16701},{"naptanId":"490009359J","name":"Lord's Cricket Ground","lat":51.53045,"lon":-0.16966},{"naptanId":"490000222B","name":"St John's Wood Station","lat":51.53371,"lon":-0.17362},{"naptanId":"490003351Q","name":"Queen's Grove","lat":51.53684,"lon":-0.17647},{"naptanId":"490004185N","name":"Boundary Road","lat":51.54027,"lon":-0.17581},{"naptanId":"490015162L","name":"Swiss Cottage Stn  /  Finchley Road","lat":51.54315,"lon":-0.17525},{"naptanId":"490005487A","name":"College Crescent","lat":51.54485,"lon":-0.17645},{"naptanId":"490000082FK","name":"Finchley Road Station","lat":51.54675,"lon":-0.17946},{"naptanId":"490007045FL","name":"Finchley Road / O2 Centre","lat":51.54791,"lon":-0.18067},{"naptanId":"490001109FD","name":"Finchley Road & Frognal Station","lat":51.55043,"lon":-0.18326},{"naptanId":"490008947N","name":"Langland Gardens","lat":51.55151,"lon":-0.18501},{"naptanId":"490014433N","name":"West End Lane","lat":51.55247,"lon":-0.18721},{"naptanId":"490012961N","name":"Lyncroft Gardens","lat":51.55479,"lon":-0.19231},{"naptanId":"490006952N","name":"Fortune Green Road","lat":51.55692,"lon":-0.19547},{"naptanId":"490009462W2","name":"Lyndale","lat":51.55937,"lon":-0.19807},{"naptanId":"490005774N","name":"Cricklewood Lane","lat":51.56096,"lon":-0.2031},{"naptanId":"490007131N","name":"Garth Road","lat":51.56331,"lon":-0.20494},{"naptanId":"490013578N","name":"The Vale","lat":51.56609,"lon":-0.20637},{"naptanId":"490010917N","name":"Pennine Drive","lat":51.56934,"lon":-0.20843},{"naptanId":"490014396N","name":"Wessex Gardens","lat":51.57192,"lon":-0.21102},{"naptanId":"490014915N","name":"Woodville Gardens","lat":51.5741,"lon":-0.21342},{"naptanId":"490003096N","name":"North Circular Road","lat":51.5762,"lon":-0.21752},{"naptanId":"490010329G","name":"Prince Charles Drive","lat":51.57738,"lon":-0.22019},{"naptanId":"490007337CA","name":"Graham Road","lat":51.58143,"lon":-0.22689},{"naptanId":"490000106E","name":"Hendon Central Station","lat":51.58347,"lon":-0.22799},{"naptanId":"490008057H","name":"Hendon War Memorial","lat":51.58553,"lon":-0.23077},{"naptanId":"490005484N","name":"Colindeep Lane","lat":51.58767,"lon":-0.2351},{"naptanId":"490007527N","name":"Greyhound Hill","lat":51.59326,"lon":-0.23427},{"naptanId":"490012291N","name":"Southfields","lat":51.59555,"lon":-0.23382},{"naptanId":"490007675N","name":"Hall Lane","lat":51.59799,"lon":-0.23371},{"naptanId":"490003023N","name":"Fiveways Corner","lat":51.60211,"lon":-0.23609},{"naptanId":"490010922N","name":"Watford Way / Grahame Park Way","lat":51.6042,"lon":-0.2389},{"naptanId":"490004580N","name":"Bunns Lane Bridge","lat":51.60855,"lon":-0.24101},{"naptanId":"490013916N","name":"Mill Hill Park","lat":51.61296,"lon":-0.24169},{"naptanId":"490005991P","name":"University College London Observatory","lat":51.61495,"lon":-0.24226},{"naptanId":"490009904R","name":"Mill Hill Circus","lat":51.61728,"lon":-0.24642},{"naptanId":"490003642N","name":"Apex Corner","lat":51.62096,"lon":-0.25359},{"naptanId":"490010499W","name":"Oakmead Gardens","lat":51.6214,"lon":-0.25905},{"naptanId":"490008561W","name":"Stoneyfields Park","lat":51.62181,"lon":-0.26318},{"naptanId":"490008196W","name":"Highview Avenue","lat":51.62216,"lon":-0.26704},{"naptanId":"490013401W","name":"The Grove","lat":51.62203,"lon":-0.27007},{"naptanId":"490003002W","name":"Broadfields Avenue","lat":51.6215,"lon":-0.27332},{"naptanId":"490006423S","name":"Edgwarebury Lane / Edgware Way","lat":51.6206,"lon":-0.27748},{"naptanId":"490006422S","name":"Edgwarebury Gardens","lat":51.61747,"lon":-0.27709},{"naptanId":"490000070G","name":"Edgware Station","lat":51.6134,"lon":-0.27552}]},{"routeId":"114","stops":[{"naptanId":"490000197A","name":"Ruislip Station","lat":51.57202,"lon":-0.4215},{"naptanId":"490000199A","name":"Ruislip Manor Station","lat":51.57284,"lon":-0.41255},{"naptanId":"490005616S","name":"Cornwall Road","lat":51.57008,"lon":-0.41043},{"naptanId":"490013721S","name":"Torrington Road","lat":51.56706,"lon":-0.40779},{"naptanId":"490013268S","name":"Torcross Road","lat":51.56283,"lon":-0.40316},{"naptanId":"490014491S","name":"Angus Drive","lat":51.5596,"lon":-0.39852},{"naptanId":"490000214B","name":"South Ruislip Station","lat":51.55729,"lon":-0.39537},{"naptanId":"490011363E","name":"Queens Walk","lat":51.55716,"lon":-0.38865},{"naptanId":"490012852E","name":"Stonefield Way","lat":51.55832,"lon":-0.38467},{"naptanId":"490006327E","name":"Holyrood Avenue","lat":51.56009,"lon":-0.37879},{"naptanId":"490008812E","name":"Kings Road","lat":51.56225,"lon":-0.37143},{"naptanId":"490013683E","name":"Alexandra Avenue","lat":51.56369,"lon":-0.3665},{"naptanId":"490005604E","name":"Corbins Lane","lat":51.56509,"lon":-0.36085},{"naptanId":"490000211F","name":"South Harrow Station","lat":51.56456,"lon":-0.35398},{"naptanId":"490012026N","name":"Grange Road","lat":51.5685,"lon":-0.34806},{"naptanId":"490006218W","name":"Dudley Road","lat":51.5704,"lon":-0.35101},{"naptanId":"490011122N","name":"Shaftesbury Avenue","lat":51.5727,"lon":-0.35313},{"naptanId":"490013792E","name":"Treve Avenue","lat":51.57571,"lon":-0.34882},{"naptanId":"490008984E","name":"Lascelles Avenue","lat":51.57731,"lon":-0.34372},{"naptanId":"490012690X1","name":"St Georges Centre","lat":51.58102,"lon":-0.33947},{"naptanId":"490007845E","name":"Harrow Bus Station","lat":51.57998,"lon":-0.33787},{"naptanId":"490007868T","name":"Harrow Town Centre","lat":51.58079,"lon":-0.33403},{"naptanId":"490007868R","name":"Harrow Town Centre / Sheepcote Road","lat":51.58174,"lon":-0.33313},{"naptanId":"490016719S","name":"Sheepcote Road","lat":51.58174,"lon":-0.33025},{"naptanId":"490007149DD","name":"Harrow High School","lat":51.57927,"lon":-0.32725},{"naptanId":"490010424GG","name":"Northwick Avenue","lat":51.57986,"lon":-0.32208},{"naptanId":"490000124HH","name":"Kenton Station","lat":51.58136,"lon":-0.31844},{"naptanId":"490004793KK","name":"Carlton Avenue","lat":51.58299,"lon":-0.31564},{"naptanId":"490010517E","name":"Odeon Parade / Upton Gardens","lat":51.58415,"lon":-0.31336},{"naptanId":"490012760E","name":"St Leonard's Avenue","lat":51.58554,"lon":-0.30987},{"naptanId":"490008670N","name":"Kenton Road","lat":51.58718,"lon":-0.30728},{"naptanId":"490008424N","name":"Hunters Grove","lat":51.59074,"lon":-0.30942},{"naptanId":"490008669E","name":"Kenton Library","lat":51.59313,"lon":-0.31041},{"naptanId":"490010037E","name":"Morley Crescent West","lat":51.59467,"lon":-0.30429},{"naptanId":"490011125W","name":"Portland Crescent","lat":51.59557,"lon":-0.29837},{"naptanId":"490011326S","name":"Queensbury Circle","lat":51.59497,"lon":-0.29313},{"naptanId":"490013423E","name":"The Honeypot","lat":51.59341,"lon":-0.29015},{"naptanId":"490000185AA","name":"Queensbury Station","lat":51.59445,"lon":-0.28544},{"naptanId":"490013845E","name":"Turner Road","lat":51.59666,"lon":-0.28579},{"naptanId":"490006882E","name":"The Parade / Cotman Gardens","lat":51.59783,"lon":-0.27927},{"naptanId":"490013416E","name":"The Highlands","lat":51.59874,"lon":-0.27323},{"naptanId":"490013255K","name":"Watling Avenue","lat":51.60114,"lon":-0.26662},{"naptanId":"490000034N","name":"Burnt Oak Station","lat":51.60257,"lon":-0.26404},{"naptanId":"490007607E","name":"Gunter Grove","lat":51.60434,"lon":-0.25993},{"naptanId":"490005753E","name":"Burnt Oak Leisure Centre","lat":51.6057,"lon":-0.2564},{"naptanId":"490007265E2","name":"Goldbeaters Grove","lat":51.6081,"lon":-0.25194},{"naptanId":"490009468N","name":"Woodcroft Avenue","lat":51.61054,"lon":-0.24792},{"naptanId":"490001193B","name":"Mill Hill Broadway Station","lat":51.6133,"lon":-0.24901}]},{"routeId":"115","stops":[{"naptanId":"490003184L","name":"Aldgate Bus Station","lat":51.51386,"lon":-0.07532},{"naptanId":"490000004Z","name":"Aldgate East Station","lat":51.51532,"lon":-0.07024},{"naptanId":"490009276E","name":"Henriques Street","lat":51.51495,"lon":-0.06661},{"naptanId":"490010255E","name":"New Road","lat":51.51484,"lon":-0.06268},{"naptanId":"490014308F","name":"Watney Market","lat":51.51447,"lon":-0.05605},{"naptanId":"490012782E","name":"St Mary's & St Michael's Church","lat":51.51418,"lon":-0.05234},{"naptanId":"490003353E","name":"Arbour Square","lat":51.51349,"lon":-0.04796},{"naptanId":"490012669E","name":"Stepney Methodist Church","lat":51.51328,"lon":-0.04467},{"naptanId":"490001180E","name":"Limehouse Station","lat":51.51284,"lon":-0.04024},{"naptanId":"490009403E","name":"Lowell Street","lat":51.51259,"lon":-0.03471},{"naptanId":"490011873E","name":"Salmon Lane","lat":51.51247,"lon":-0.03254},{"naptanId":"490009158E","name":"Burdett Road","lat":51.51245,"lon":-0.02992},{"naptanId":"490013965E","name":"University of Cumbria In London","lat":51.51146,"lon":-0.02512},{"naptanId":"490013936E","name":"Upper North Street","lat":51.5109,"lon":-0.02141},{"naptanId":"490011114BC","name":"Poplar Recreation Grd / Poplar Stn","lat":51.51103,"lon":-0.01786},{"naptanId":"490015270B","name":"Chrisp Street Market / All Saints Dlr","lat":51.5112,"lon":-0.0149},{"naptanId":"490003701C","name":"Bazely Street","lat":51.51136,"lon":-0.01151},{"naptanId":"490007047E","name":"Brunswick Road","lat":51.51186,"lon":-0.00589},{"naptanId":"490004532F","name":"Nutmeg Lane","lat":51.51231,"lon":-0.00378},{"naptanId":"490003047E","name":"Abbott Road","lat":51.51281,"lon":-0.00104},{"naptanId":"490000039H","name":"Stephenson Street","lat":51.51517,"lon":0.00564},{"naptanId":"490000039F","name":"Canning Town Bus Station","lat":51.5145,"lon":0.00848},{"naptanId":"490011429J","name":"Rathbone Market","lat":51.51664,"lon":0.0098},{"naptanId":"490003750L","name":"Hermit Road","lat":51.51755,"lon":0.01201},{"naptanId":"490005902E","name":"Rokeby School","lat":51.51956,"lon":0.01641},{"naptanId":"490008834E","name":"King Street","lat":51.52081,"lon":0.01922},{"naptanId":"490003551E","name":"Balaam Street","lat":51.52216,"lon":0.02196},{"naptanId":"490011047E","name":"Plaistow Police Station","lat":51.52342,"lon":0.02491},{"naptanId":"490011040E","name":"Plaistow / Prince Regent Lane","lat":51.52643,"lon":0.02994},{"naptanId":"490010201E","name":"New City Road","lat":51.5279,"lon":0.03221},{"naptanId":"490016264E","name":"Samson Street","lat":51.52897,"lon":0.03393},{"naptanId":"490003273O","name":"Upton Park / Green Street","lat":51.53021,"lon":0.03643},{"naptanId":"490013959E","name":"Upton Park / Priory Road","lat":51.53063,"lon":0.03994},{"naptanId":"490003390E","name":"Arragon Road","lat":51.53116,"lon":0.04312},{"naptanId":"490008601E","name":"Katherine Road","lat":51.5317,"lon":0.04627},{"naptanId":"490003659P","name":"Bartle Avenue","lat":51.53251,"lon":0.05111},{"naptanId":"490006360R","name":"High Street North","lat":51.53292,"lon":0.05309},{"naptanId":"490010218V","name":"Newham Town Hall","lat":51.53188,"lon":0.05529},{"naptanId":"490009662S","name":"Market Street","lat":51.53059,"lon":0.0559},{"naptanId":"490006358S2","name":"East Ham / Central Park","lat":51.5287,"lon":0.05628}]},{"routeId":"116","stops":[{"naptanId":"490015241B","name":"School Road","lat":51.47019,"lon":-0.35588},{"naptanId":"490008398H","name":"Fair Street","lat":51.46927,"lon":-0.3601},{"naptanId":"490008397J","name":"Douglas Road","lat":51.46889,"lon":-0.36193},{"naptanId":"490013777S","name":"Treaty Centre","lat":51.46698,"lon":-0.364},{"naptanId":"490015444W","name":"The Bell","lat":51.46719,"lon":-0.3686},{"naptanId":"490008125W","name":"Hibernia Road","lat":51.46636,"lon":-0.37287},{"naptanId":"490014362W","name":"Wellington Road South","lat":51.46486,"lon":-0.37972},{"naptanId":"490009702W","name":"Staines Road / Martindale Road","lat":51.464,"lon":-0.38361},{"naptanId":"490008395W","name":"Barrack Road","lat":51.4627,"lon":-0.38862},{"naptanId":"490008506W","name":"Islay Gardens","lat":51.46152,"lon":-0.39228},{"naptanId":"490007467W","name":"Green Lane","lat":51.45976,"lon":-0.39781},{"naptanId":"490008401W","name":"Hounslow Road","lat":51.45836,"lon":-0.40483},{"naptanId":"490007817W","name":"Faggs Road","lat":51.45754,"lon":-0.40906},{"naptanId":"490012027W","name":"Shaftesbury Avenue","lat":51.45659,"lon":-0.41439},{"naptanId":"490006595W","name":"Engleheart Drive","lat":51.45584,"lon":-0.4184},{"naptanId":"490004836W","name":"Cassiobury Avenue","lat":51.45526,"lon":-0.42151},{"naptanId":"490003788W","name":"Bedfont Lane","lat":51.45425,"lon":-0.426},{"naptanId":"490003791W","name":"Bethany Waye","lat":51.45363,"lon":-0.42858},{"naptanId":"490010257W","name":"New Road","lat":51.45295,"lon":-0.43135},{"naptanId":"490003790W","name":"Bedfont Library","lat":51.45219,"lon":-0.43452},{"naptanId":"490003786W","name":"Bedfont Green","lat":51.45135,"lon":-0.43819},{"naptanId":"490005439W2","name":"Spinney Drive","lat":51.44981,"lon":-0.4447},{"naptanId":"490005439W1","name":"Clockhouse Roundabout","lat":51.44821,"lon":-0.44927},{"naptanId":"490007856W","name":"Harrow Road","lat":51.44652,"lon":-0.45788},{"naptanId":"40004402015B","name":"Short Lane","lat":51.445242,"lon":-0.462814},{"naptanId":"40004402016B","name":"Long Lane","lat":51.444113,"lon":-0.467975},{"naptanId":"40004402075A","name":"Ashford Hospital","lat":51.444627,"lon":-0.474951}]},{"routeId":"117","stops":[{"naptanId":"40004402126B","name":"Staines Bus Station","lat":51.432829,"lon":-0.509166},{"naptanId":"40004402125A","name":"High Street","lat":51.435139,"lon":-0.50768},{"naptanId":"40004402124C","name":"Staines Police Station","lat":51.434888,"lon":-0.505646},{"naptanId":"40004402122B","name":"Staines Station","lat":51.433096,"lon":-0.501921},{"naptanId":"40004402120B","name":"Knowle Green","lat":51.43043,"lon":-0.497361},{"naptanId":"40004402119C","name":"Worple Road","lat":51.428314,"lon":-0.492986},{"naptanId":"40004402118A","name":"Fenton Avenue","lat":51.427759,"lon":-0.489653},{"naptanId":"40004402117A","name":"Petersfield Avenue","lat":51.427238,"lon":-0.485527},{"naptanId":"40004402116C","name":"Kingston Crescent","lat":51.427157,"lon":-0.480639},{"naptanId":"40004402115B","name":"Ferndale Road","lat":51.431165,"lon":-0.479053},{"naptanId":"40004402114B","name":"Chesterfield Road","lat":51.432853,"lon":-0.478163},{"naptanId":"40004402113B","name":"Stanwell Road","lat":51.43454,"lon":-0.473071},{"naptanId":"40004402112B","name":"Ashford Station","lat":51.435614,"lon":-0.46918},{"naptanId":"40004402156B","name":"Dudley Road","lat":51.434538,"lon":-0.465317},{"naptanId":"40004402106A","name":"Ashford War Memorial","lat":51.432505,"lon":-0.460436},{"naptanId":"40004402104A","name":"Convent Road","lat":51.432663,"lon":-0.454043},{"naptanId":"40004402103A","name":"Chattern Hill","lat":51.432718,"lon":-0.451395},{"naptanId":"40004402102A","name":"Chalmers Road East","lat":51.43289,"lon":-0.447404},{"naptanId":"40004402101A","name":"Anderson Drive","lat":51.433051,"lon":-0.443902},{"naptanId":"40004402205A","name":"Challenge Road","lat":51.434087,"lon":-0.440731},{"naptanId":"490006829E","name":"Field View","lat":51.43517,"lon":-0.43602},{"naptanId":"490005101E","name":"Chertsey Road","lat":51.43751,"lon":-0.42476},{"naptanId":"490009414E","name":"St Dunstans Road","lat":51.43836,"lon":-0.42096},{"naptanId":"490014034E","name":"Vernon Road","lat":51.43929,"lon":-0.41867},{"naptanId":"490010767E","name":"Parkfield Crescent","lat":51.44009,"lon":-0.41597},{"naptanId":"490006786K","name":"Feltham Tesco","lat":51.44281,"lon":-0.41261},{"naptanId":"490003789G","name":"Feltham Station  / Victoria Road","lat":51.44664,"lon":-0.4098},{"naptanId":"490006781N","name":"Feltham Assembly Hall","lat":51.45071,"lon":-0.40675},{"naptanId":"490008400N","name":"Harlington Road West","lat":51.45252,"lon":-0.40569},{"naptanId":"490004794N","name":"Carlton Avenue","lat":51.45594,"lon":-0.40399},{"naptanId":"490012485N","name":"The Vale","lat":51.45777,"lon":-0.40356},{"naptanId":"490007467E","name":"Green Lane","lat":51.46091,"lon":-0.39446},{"naptanId":"490008506E","name":"Islay Gardens","lat":51.46178,"lon":-0.39179},{"naptanId":"490008395E","name":"Frampton Road","lat":51.46337,"lon":-0.38697},{"naptanId":"490009702E","name":"Martindale Road","lat":51.4638,"lon":-0.38503},{"naptanId":"490005698E","name":"Cranbrook Road","lat":51.4647,"lon":-0.38166},{"naptanId":"490014362E","name":"Wellington Road South","lat":51.46549,"lon":-0.3774},{"naptanId":"490008125E","name":"Hibernia Road","lat":51.46675,"lon":-0.37162},{"naptanId":"490013259U","name":"The Bell","lat":51.46731,"lon":-0.3665},{"naptanId":"490013777O","name":"Treaty Centre","lat":51.46752,"lon":-0.36212},{"naptanId":"490008399K","name":"Hounslow High Street","lat":51.46945,"lon":-0.35801},{"naptanId":"490008392F","name":"Hounslow Bus Station","lat":51.47101,"lon":-0.35362},{"naptanId":"490004327W2","name":"Bridge Road","lat":51.47201,"lon":-0.34939},{"naptanId":"490012599E","name":"Star Road","lat":51.47296,"lon":-0.34675},{"naptanId":"490013620E","name":"Thornbury Road","lat":51.47403,"lon":-0.34465},{"naptanId":"490008510E","name":"West Thames College","lat":51.47496,"lon":-0.34216},{"naptanId":"490009287S","name":"Isleworth Station  / Rennels Way","lat":51.47446,"lon":-0.33829},{"naptanId":"490014864JA","name":"St John the Baptist","lat":51.4732,"lon":-0.33706},{"naptanId":"490007338JC","name":"Grainger Road","lat":51.47152,"lon":-0.33315},{"naptanId":"490009538N","name":"Mandeville Road","lat":51.47248,"lon":-0.32831},{"naptanId":"490014493HD","name":"West Middlesex Hospital","lat":51.4739,"lon":-0.32539}]},{"routeId":"119","stops":[{"naptanId":"490013304S2","name":"The Colonnades / Croydon Airport","lat":51.35621,"lon":-0.11502},{"naptanId":"490003130N","name":"Airport House","lat":51.35628,"lon":-0.11664},{"naptanId":"490008475N","name":"Imperial Way","lat":51.35919,"lon":-0.11728},{"naptanId":"490005466N","name":"Coldharbour Road","lat":51.36124,"lon":-0.11786},{"naptanId":"490006869N1","name":"Waddon Leisure Centre / Fiveways","lat":51.3634,"lon":-0.11839},{"naptanId":"490006869EB1","name":"Stafford Road","lat":51.36478,"lon":-0.11662},{"naptanId":"490005835E","name":"Crowley Crescent","lat":51.36293,"lon":-0.11159},{"naptanId":"490004239E","name":"Bramley Hill","lat":51.36247,"lon":-0.10681},{"naptanId":"490005853E","name":"Croydon Bowling Club","lat":51.363,"lon":-0.10338},{"naptanId":"490013100K","name":"Warham Road / Brighton Road","lat":51.36352,"lon":-0.09984},{"naptanId":"490015548M","name":"Swan & Sugar Loaf","lat":51.36448,"lon":-0.09898},{"naptanId":"490005574V","name":"Coombe Road","lat":51.36725,"lon":-0.09908},{"naptanId":"490005855C18","name":"Croydon Flyover","lat":51.37016,"lon":-0.10011},{"naptanId":"490005858NZ","name":"Croydon Library","lat":51.37316,"lon":-0.09865},{"naptanId":"490001089E1","name":"East Croydon Bus Station","lat":51.37494,"lon":-0.09174},{"naptanId":"490002052E","name":"Lebanon Road Tram Stop","lat":51.37523,"lon":-0.08542},{"naptanId":"490002072B","name":"Sandilands Tram Stop","lat":51.37523,"lon":-0.07897},{"naptanId":"490003420E","name":"Ashburton Road","lat":51.37505,"lon":-0.07583},{"naptanId":"490009623E","name":"Mapledale Avenue","lat":51.37425,"lon":-0.07099},{"naptanId":"490004014E","name":"Birch Tree Way","lat":51.37521,"lon":-0.06543},{"naptanId":"490012099E1","name":"Trinity School","lat":51.37624,"lon":-0.06102},{"naptanId":"490002279ZZ","name":"Valley Walk","lat":51.37509,"lon":-0.05745},{"naptanId":"490013945E","name":"Upper Shirley Road","lat":51.37392,"lon":-0.05459},{"naptanId":"490013551E","name":"Verdayne Avenue","lat":51.37469,"lon":-0.04971},{"naptanId":"490012096E","name":"Shirley Library","lat":51.37526,"lon":-0.04672},{"naptanId":"490005150E","name":"Cheston Avenue","lat":51.37586,"lon":-0.04289},{"naptanId":"490008946E","name":"Langland Gardens","lat":51.3769,"lon":-0.03797},{"naptanId":"490009979P","name":"West Wickham and Shirley Baptist Church","lat":51.37742,"lon":-0.02745},{"naptanId":"490014528L","name":"High Street / Manor Road","lat":51.37733,"lon":-0.02206},{"naptanId":"490012087J","name":"Sherwood Way","lat":51.37635,"lon":-0.01788},{"naptanId":"490014529G","name":"High Street / the Grove","lat":51.37598,"lon":-0.01593},{"naptanId":"490014652S","name":"Wickham Court Road","lat":51.37308,"lon":-0.01276},{"naptanId":"490014530S","name":"West Wickham Playing Fields","lat":51.37176,"lon":-0.01069},{"naptanId":"490005656S","name":"Courtfield Rise","lat":51.37018,"lon":-0.00759},{"naptanId":"490009032E","name":"Layhams Road","lat":51.36933,"lon":-0.00435},{"naptanId":"490003099N","name":"Addington Road / Glebe Way","lat":51.37074,"lon":-0.00204},{"naptanId":"490005545N","name":"Tiepigs Lane","lat":51.37388,"lon":0.00156},{"naptanId":"490008289W1","name":"Holland Way","lat":51.37585,"lon":0.00648},{"naptanId":"490001145C","name":"Hayes Station","lat":51.37625,"lon":0.01087},{"naptanId":"490007941D","name":"Hayes / Station Approach","lat":51.37749,"lon":0.01036},{"naptanId":"490007951E","name":"Hayes Library","lat":51.37755,"lon":0.017},{"naptanId":"490007943N","name":"Hayes / George Lane","lat":51.37895,"lon":0.01781},{"naptanId":"490005448N","name":"Club Gardens Road","lat":51.38333,"lon":0.01701},{"naptanId":"490010307N","name":"Hayes Lane / Norman Park","lat":51.38873,"lon":0.01734},{"naptanId":"490007953N","name":"Hayes Road / Hayes Lane","lat":51.39231,"lon":0.01748},{"naptanId":"490004724N","name":"Hayes Road / Cameron Road","lat":51.39717,"lon":0.01473},{"naptanId":"490012775E","name":"St Mark's Church","lat":51.39883,"lon":0.01659},{"naptanId":"490001037W","name":"Bromley South Station","lat":51.40066,"lon":0.01663},{"naptanId":"4900004410U","name":"Elmfield Road / the Mall","lat":51.40277,"lon":0.0164},{"naptanId":"490008665Q","name":"Queens Gardens","lat":51.40424,"lon":0.01849},{"naptanId":"490004435Q","name":"Court Street","lat":51.40601,"lon":0.01646},{"naptanId":"4900004425O","name":"West Street","lat":51.40799,"lon":0.01381},{"naptanId":"490001036N","name":"Bromley North Station","lat":51.409,"lon":0.01659}]},{"routeId":"12","stops":[{"naptanId":"490006652N","name":"Etherow Street","lat":51.45001,"lon":-0.07269},{"naptanId":"490007293N","name":"Goodrich Road","lat":51.452,"lon":-0.07151},{"naptanId":"490013900N","name":"Underhill Road","lat":51.4549,"lon":-0.06913},{"naptanId":"490013918N","name":"Upland Road","lat":51.45751,"lon":-0.06725},{"naptanId":"490010885N","name":"Peckham Rye / Barry Road","lat":51.4595,"lon":-0.06617},{"naptanId":"490013366N","name":"The Gardens","lat":51.46095,"lon":-0.06643},{"naptanId":"490008807N2","name":"Peckham Rye / East Dulwich Road","lat":51.46288,"lon":-0.06668},{"naptanId":"490010269N","name":"Nigel Road","lat":51.46583,"lon":-0.06648},{"naptanId":"490008037X","name":"Heaton Road","lat":51.46746,"lon":-0.06679},{"naptanId":"490001223U","name":"Peckham Rye Station","lat":51.47039,"lon":-0.06895},{"naptanId":"490011842R","name":"Hanover Park","lat":51.47267,"lon":-0.06982},{"naptanId":"490014252W","name":"Harris Academy","lat":51.47373,"lon":-0.07339},{"naptanId":"490012248W","name":"Peckham Road / Southampton Way","lat":51.4742,"lon":-0.07655},{"naptanId":"490012357W2","name":"Vestry Road","lat":51.4737,"lon":-0.08241},{"naptanId":"490012713W","name":"St Giles Church","lat":51.47343,"lon":-0.08708},{"naptanId":"490015299L","name":"Camberwell Church St / Camberwell Grn","lat":51.47403,"lon":-0.09154},{"naptanId":"490015298F","name":"Camberwell Green","lat":51.47529,"lon":-0.09328},{"naptanId":"490009784D","name":"Medlar Street","lat":51.47682,"lon":-0.09408},{"naptanId":"490014979N2","name":"Wyndham Road","lat":51.4785,"lon":-0.09423},{"naptanId":"490004221N","name":"Bowyer Place","lat":51.48058,"lon":-0.09446},{"naptanId":"490003138N2","name":"Camberwell Road / Albany Road","lat":51.48168,"lon":-0.09454},{"naptanId":"490014501M","name":"Westmoreland Road","lat":51.4841,"lon":-0.09407},{"naptanId":"490006380H","name":"East Street","lat":51.48694,"lon":-0.09523},{"naptanId":"490008975C","name":"Larcom Street","lat":51.48997,"lon":-0.09689},{"naptanId":"490008122N","name":"Heygate Street","lat":51.4914,"lon":-0.09784},{"naptanId":"490000073V","name":"Elephant & Castle Station","lat":51.49447,"lon":-0.10085},{"naptanId":"490009270Z","name":"London College of Communication","lat":51.49525,"lon":-0.10206},{"naptanId":"490008473N","name":"St George's Road / Imperial War Museum","lat":51.49645,"lon":-0.1059},{"naptanId":"490000132B","name":"Lambeth North Station","lat":51.49856,"lon":-0.11182},{"naptanId":"490009420W","name":"Lower Marsh","lat":51.4994,"lon":-0.11377},{"naptanId":"490005646D","name":"St Thomas' Hospital / County Hall","lat":51.50072,"lon":-0.11937},{"naptanId":"490015048A","name":"Westminster Stn  / Parliament Square","lat":51.50187,"lon":-0.12637},{"naptanId":"490008376N","name":"Horse Guards Parade","lat":51.50405,"lon":-0.12641},{"naptanId":"490013767T","name":"Trafalgar Square","lat":51.50753,"lon":-0.12991},{"naptanId":"490011516Y","name":"Regent Street / St James's","lat":51.50894,"lon":-0.13423},{"naptanId":"490011515W","name":"Piccadilly Circus","lat":51.50988,"lon":-0.13735},{"naptanId":"490005537RA","name":"Beak Street / Hamleys Toy Store","lat":51.51127,"lon":-0.13914},{"naptanId":"490000173RC","name":"Oxford Circus Station","lat":51.51462,"lon":-0.14194},{"naptanId":"490000173N","name":"Margaret Street / Oxford Circus","lat":51.51607,"lon":-0.14233}]},{"routeId":"120","stops":[{"naptanId":"490000162B","name":"Northolt Station","lat":51.54848,"lon":-0.36741},{"naptanId":"490009959D","name":"Moat Farm Road","lat":51.54647,"lon":-0.37023},{"naptanId":"490003178S","name":"Kingston Close","lat":51.54404,"lon":-0.37446},{"naptanId":"490013155S","name":"Sycamore Close","lat":51.54066,"lon":-0.38215},{"naptanId":"490003891S","name":"Bengarth Road / Northolt Library","lat":51.53961,"lon":-0.38434},{"naptanId":"490014992S","name":"Yeading / White Hart Roundabout","lat":51.53682,"lon":-0.38947},{"naptanId":"490015479E","name":"Church Road","lat":51.53502,"lon":-0.38904},{"naptanId":"490008596E","name":"Wayfarer Road","lat":51.53324,"lon":-0.38484},{"naptanId":"490004373E","name":"Broadmead Road","lat":51.53293,"lon":-0.37827},{"naptanId":"490003116E","name":"Adrienne Avenue","lat":51.53275,"lon":-0.37287},{"naptanId":"490008628S","name":"Kenilworth Gardens","lat":51.53008,"lon":-0.37243},{"naptanId":"490009028S","name":"Lawson Road","lat":51.5274,"lon":-0.37328},{"naptanId":"490014756S","name":"Windermere Road","lat":51.52453,"lon":-0.37415},{"naptanId":"490012227S","name":"Somerset Road","lat":51.52073,"lon":-0.37486},{"naptanId":"490013442S","name":"Denbigh Road","lat":51.51894,"lon":-0.37514},{"naptanId":"490004807S","name":"Carlyle Avenue","lat":51.51636,"lon":-0.37547},{"naptanId":"490010317D","name":"North Avenue","lat":51.51419,"lon":-0.37546},{"naptanId":"490003276F","name":"Lady Margaret Road / Southall Broadway","lat":51.51204,"lon":-0.37548},{"naptanId":"490015439M","name":"Southall Broadway","lat":51.50999,"lon":-0.3762},{"naptanId":"490010754Q","name":"Park Avenue","lat":51.5078,"lon":-0.37793},{"naptanId":"490001255O","name":"Southall Station","lat":51.50554,"lon":-0.3789},{"naptanId":"490013388M","name":"The Green","lat":51.50244,"lon":-0.38137},{"naptanId":"490008833F","name":"King Street","lat":51.50041,"lon":-0.38297},{"naptanId":"490003966D","name":"Beverley Road","lat":51.49934,"lon":-0.38217},{"naptanId":"490010445B","name":"Norwood Gardens","lat":51.4986,"lon":-0.37831},{"naptanId":"490007792S","name":"Harewood Terrace","lat":51.49694,"lon":-0.3753},{"naptanId":"490010447S","name":"Norwood Green","lat":51.4939,"lon":-0.37084},{"naptanId":"490006811N2","name":"Fern Lane","lat":51.49006,"lon":-0.37176},{"naptanId":"490012443S","name":"St Leonard's Church","lat":51.48531,"lon":-0.37301},{"naptanId":"490008272E","name":"Hogarth Gardens","lat":51.48303,"lon":-0.36823},{"naptanId":"490007427S","name":"Great West Road","lat":51.48025,"lon":-0.36486},{"naptanId":"490013432S","name":"Lampton Avenue","lat":51.47738,"lon":-0.36345},{"naptanId":"490008394S","name":"Civic Street","lat":51.47378,"lon":-0.36584},{"naptanId":"4900001162","name":"Hounslow Central Station","lat":51.4709,"lon":-0.36704},{"naptanId":"490008391Y","name":"Bell Corner / Hounslow House","lat":51.46856,"lon":-0.36692},{"naptanId":"490013259V","name":"The Bell","lat":51.46717,"lon":-0.36645},{"naptanId":"490013777P","name":"Treaty Centre","lat":51.46728,"lon":-0.36306},{"naptanId":"490008399K","name":"Hounslow High Street","lat":51.46945,"lon":-0.35801},{"naptanId":"490008392Z1","name":"Hounslow Bus Station","lat":51.47093,"lon":-0.35445}]},{"routeId":"121","stops":[{"naptanId":"490013852S","name":"Turnpike Lane Bus Station","lat":51.59036,"lon":-0.10226},{"naptanId":"490000241O","name":"Coleraine Road","lat":51.59151,"lon":-0.10471},{"naptanId":"490009461J","name":"Wood Green Shopping City","lat":51.5941,"lon":-0.10819},{"naptanId":"490015567H","name":"Wood Green Station","lat":51.59659,"lon":-0.10995},{"naptanId":"490007797N","name":"Haringey Civic Centre","lat":51.59998,"lon":-0.11143},{"naptanId":"490010274N","name":"Nightingale Road","lat":51.60269,"lon":-0.1123},{"naptanId":"490012152N","name":"Arcadian Gardens","lat":51.60574,"lon":-0.11167},{"naptanId":"490003875N","name":"Berkshire Gardens","lat":51.60916,"lon":-0.1102},{"naptanId":"490010333T","name":"Tottenhall Road","lat":51.61104,"lon":-0.10974},{"naptanId":"490015399L","name":"North Circular Road","lat":51.61329,"lon":-0.10985},{"naptanId":"490004486J","name":"Broomfield Lane","lat":51.61499,"lon":-0.10978},{"naptanId":"490001222D","name":"Palmers Green Station","lat":51.61786,"lon":-0.10973},{"naptanId":"490004488W","name":"Broomfield Park","lat":51.61968,"lon":-0.11562},{"naptanId":"490006908N1","name":"Forestdale","lat":51.62064,"lon":-0.12087},{"naptanId":"490011978N","name":"Selborne Road","lat":51.62291,"lon":-0.12232},{"naptanId":"490014999N","name":"Ye Olde Cherry Tree","lat":51.62531,"lon":-0.12468},{"naptanId":"490009773N","name":"Meadway","lat":51.62728,"lon":-0.126},{"naptanId":"490012299A","name":"Southgate College","lat":51.63058,"lon":-0.12795},{"naptanId":"490000210F","name":"Southgate Station","lat":51.63199,"lon":-0.12779},{"naptanId":"490006036N","name":"West Grove Primary School","lat":51.63667,"lon":-0.12758},{"naptanId":"490005029N","name":"Charter Way","lat":51.63976,"lon":-0.12904},{"naptanId":"490009820N","name":"Merrivale","lat":51.64311,"lon":-0.1307},{"naptanId":"490016715N","name":"Tregenna Close","lat":51.64556,"lon":-0.1319},{"naptanId":"490015505C","name":"Oakwood Station  / Chase Road","lat":51.64803,"lon":-0.13208},{"naptanId":"490013789E","name":"Trent Park Golf Course","lat":51.64931,"lon":-0.12923},{"naptanId":"490008912E","name":"Lakeside","lat":51.65164,"lon":-0.12461},{"naptanId":"490005630E","name":"Cotswold Way","lat":51.65398,"lon":-0.11322},{"naptanId":"490009190E","name":"Links Side","lat":51.65503,"lon":-0.10872},{"naptanId":"490005037E","name":"Chase Ridings","lat":51.6553,"lon":-0.10137},{"naptanId":"490013527E","name":"The Ridgeway","lat":51.65383,"lon":-0.09663},{"naptanId":"490001099CC","name":"Enfield Chase Station","lat":51.65367,"lon":-0.08902},{"naptanId":"490006587E","name":"Enfield Town / Church Street","lat":51.65221,"lon":-0.08306},{"naptanId":"490001101K","name":"Enfield Town Station","lat":51.65241,"lon":-0.07863},{"naptanId":"490008903E","name":"Ladysmith Road","lat":51.65226,"lon":-0.07408},{"naptanId":"490004902E","name":"Cecil Avenue","lat":51.65167,"lon":-0.07051},{"naptanId":"490010933E","name":"Percival Road","lat":51.65072,"lon":-0.06592},{"naptanId":"490007396E2","name":"Great Cambridge Road","lat":51.65017,"lon":-0.06259},{"naptanId":"490015329E","name":"Baird Road","lat":51.64923,"lon":-0.05779},{"naptanId":"490005843E","name":"Crown Road / Southbury Station","lat":51.64906,"lon":-0.05471},{"naptanId":"490007258C","name":"Glyn Road","lat":51.64863,"lon":-0.04792},{"naptanId":"490015441G","name":"Durants Road","lat":51.65032,"lon":-0.04673},{"naptanId":"490006579N","name":"Enfield College","lat":51.65272,"lon":-0.04794},{"naptanId":"490013883N","name":"Green Street","lat":51.6562,"lon":-0.0476},{"naptanId":"490004314N","name":"Carterhatch Lane","lat":51.65915,"lon":-0.04712},{"naptanId":"490004828N","name":"Oatlands Road","lat":51.66128,"lon":-0.04624},{"naptanId":"490012493N","name":"Durants School","lat":51.66328,"lon":-0.04525},{"naptanId":"490005757N","name":"Ingersoll Road","lat":51.66526,"lon":-0.04387},{"naptanId":"490003136N","name":"Albany Leisure Centre","lat":51.66791,"lon":-0.04179},{"naptanId":"490001299D","name":"Turkey Street Station","lat":51.67036,"lon":-0.04102},{"naptanId":"490003710E","name":"Beaconsfield Road","lat":51.67162,"lon":-0.03835},{"naptanId":"490013682E","name":"Titchfield Road","lat":51.6715,"lon":-0.03374},{"naptanId":"490001100B","name":"Enfield Lock Station","lat":51.67127,"lon":-0.02979},{"naptanId":"490011869E","name":"Mollison Avenue","lat":51.67094,"lon":-0.02293},{"naptanId":"490004882E","name":"Causeway Bridge / River Lee","lat":51.67093,"lon":-0.01793},{"naptanId":"490007600E","name":"Gunner Drive","lat":51.67031,"lon":-0.01498},{"naptanId":"490004735S","name":"Canal Side Walk","lat":51.66801,"lon":-0.01546},{"naptanId":"490006582N","name":"Enfield Island Village","lat":51.66612,"lon":-0.01541}]},{"routeId":"122","stops":[{"naptanId":"490005869B","name":"Crystal Palace Parade","lat":51.4219,"lon":-0.07747},{"naptanId":"490005494N1","name":"Crystal Palace Parade / College Road","lat":51.42461,"lon":-0.07586},{"naptanId":"490005872E","name":"Crystal Palace Park Road","lat":51.42635,"lon":-0.07235},{"naptanId":"490004999E","name":"Charleville Circus","lat":51.42661,"lon":-0.06696},{"naptanId":"490013128E","name":"Sydenham High School","lat":51.4281,"lon":-0.06154},{"naptanId":"490009026C","name":"Sydenham Station / Westwood Hill","lat":51.42758,"lon":-0.05739},{"naptanId":"490005453E","name":"Sydenham Station  / Kirkdale","lat":51.42772,"lon":-0.05671},{"naptanId":"490010871N","name":"Peak Hill","lat":51.42991,"lon":-0.05886},{"naptanId":"490013125N","name":"Sydenham / the Woodman","lat":51.43191,"lon":-0.06068},{"naptanId":"490013131N2","name":"Sydenham Police Station","lat":51.43392,"lon":-0.05841},{"naptanId":"490013646N","name":"Dartmouth Road / Thorpewood Avenue","lat":51.43511,"lon":-0.05669},{"naptanId":"490000866Z","name":"Forest Hill Pools","lat":51.43655,"lon":-0.05511},{"naptanId":"490001112E","name":"Forest Hill Station  / Dartmouth Road","lat":51.43884,"lon":-0.05408},{"naptanId":"490014126L","name":"Waldram Park Road","lat":51.44032,"lon":-0.05036},{"naptanId":"490006920E","name":"Forest Hill Fire Station","lat":51.44234,"lon":-0.04616},{"naptanId":"490005717E1","name":"Stanstead Road / Colfe Road","lat":51.44231,"lon":-0.04379},{"naptanId":"490004396N","name":"Brockley Park","lat":51.44434,"lon":-0.04275},{"naptanId":"490006242HL","name":"Duncombe Hill","lat":51.44679,"lon":-0.04248},{"naptanId":"490004398C","name":"Stondon Park / Honor Oak Park","lat":51.44917,"lon":-0.04105},{"naptanId":"490009502NH","name":"Maclean Road","lat":51.45057,"lon":-0.04047},{"naptanId":"490004395C","name":"Brockley Jack","lat":51.45259,"lon":-0.03903},{"naptanId":"490018484N","name":"Crofton Park Station","lat":51.45448,"lon":-0.03758},{"naptanId":"490001076A","name":"Beecroft Road","lat":51.45611,"lon":-0.03635},{"naptanId":"490005942S2","name":"Dalrymple Road","lat":51.45766,"lon":-0.03499},{"naptanId":"490011727E","name":"Roundel Close","lat":51.45901,"lon":-0.03352},{"naptanId":"490009988E","name":"Adelaide Avenue / Montague Avenue","lat":51.45902,"lon":-0.02885},{"naptanId":"490011172E","name":"Prendergast School","lat":51.45803,"lon":-0.02646},{"naptanId":"490001175HA","name":"Ladywell Station","lat":51.4566,"lon":-0.02052},{"naptanId":"490009114E","name":"Wearside Road","lat":51.45667,"lon":-0.01629},{"naptanId":"490009111HL","name":"Lewisham Fire Station","lat":51.4572,"lon":-0.01362},{"naptanId":"490009105V","name":"Lewisham Centre","lat":51.46122,"lon":-0.01053},{"naptanId":"490003864N","name":"Belmont Hill","lat":51.46181,"lon":-0.00699},{"naptanId":"490003868E","name":"Belmont Park","lat":51.45988,"lon":-0.00403},{"naptanId":"490009568E","name":"Manor Park","lat":51.45872,"lon":-0.00162},{"naptanId":"490004257E","name":"Brandram Road","lat":51.45865,"lon":0.00274},{"naptanId":"490005918E","name":"Dacre Park","lat":51.45872,"lon":0.00647},{"naptanId":"490008924E","name":"Lampmead Road","lat":51.45704,"lon":0.00919},{"naptanId":"490009060E","name":"Lee Green / the Old Tigers Head","lat":51.45664,"lon":0.01015},{"naptanId":"490004697E","name":"Cambridge Drive","lat":51.45537,"lon":0.01603},{"naptanId":"490014334E","name":"Weigall Road","lat":51.45461,"lon":0.01991},{"naptanId":"490005664E","name":"Courtlands Avenue","lat":51.45413,"lon":0.02244},{"naptanId":"490008704E","name":"Eltham Road / Kidbrooke Park Road","lat":51.45366,"lon":0.02552},{"naptanId":"490013053E","name":"Sutcliffe Park","lat":51.45298,"lon":0.03023},{"naptanId":"490015018E1","name":"Eltham Road / Westhorne Avenue","lat":51.45301,"lon":0.03416},{"naptanId":"490007499N","name":"Green Way","lat":51.45355,"lon":0.03683},{"naptanId":"490007645N","name":"Haimo Road","lat":51.45551,"lon":0.0397},{"naptanId":"490004351N","name":"Westhorne Avenue / Briset Road","lat":51.45766,"lon":0.04299},{"naptanId":"490008701N1","name":"Westhorne Avenue / Kidbrooke Lane","lat":51.45864,"lon":0.04519},{"naptanId":"490006494N","name":"Elmbrook Gardens","lat":51.45944,"lon":0.04703},{"naptanId":"490006081N","name":"Dickson Road","lat":51.46167,"lon":0.04972},{"naptanId":"490003355N","name":"Arbroath Road","lat":51.46399,"lon":0.05139},{"naptanId":"490013592N","name":"Well Hall Road / Dunblane Road","lat":51.46661,"lon":0.05227},{"naptanId":"490004379N","name":"Well Hall Road / Broad Walk","lat":51.46955,"lon":0.05442},{"naptanId":"490012108N","name":"Academy Road / Shooters Hill Road","lat":51.47201,"lon":0.05506},{"naptanId":"490011762N","name":"Royal Garrison Church","lat":51.47551,"lon":0.05659},{"naptanId":"490015336N","name":"Ha Ha Road","lat":51.48048,"lon":0.06043},{"naptanId":"490010273N","name":"Gunner Lane","lat":51.48301,"lon":0.06201},{"naptanId":"490010145N","name":"Naafi Messing Store","lat":51.48637,"lon":0.06298},{"naptanId":"490001344N1","name":"Woolwich Arsenal Station","lat":51.4898,"lon":0.06811},{"naptanId":"490014934E","name":"Woolwich Station","lat":51.4914,"lon":0.07138},{"naptanId":"490009723E","name":"Maxey Road","lat":51.49116,"lon":0.07722},{"naptanId":"490011069A","name":"Plumstead Bus Garage","lat":51.49114,"lon":0.08113}]},{"routeId":"123","stops":[{"naptanId":"490007657W","name":"Hainault Street","lat":51.55967,"lon":0.07696},{"naptanId":"490008466Q1","name":"Redbridge Central Library","lat":51.55785,"lon":0.07405},{"naptanId":"490008470M","name":"High Road Ilford","lat":51.55814,"lon":0.07174},{"naptanId":"490001157G","name":"Ilford Station","lat":51.5588,"lon":0.06998},{"naptanId":"490013311U","name":"Beal Road","lat":51.56325,"lon":0.06746},{"naptanId":"490013331W","name":"Northbrook Road","lat":51.56448,"lon":0.06624},{"naptanId":"490013988N","name":"Valentines Park","lat":51.56767,"lon":0.06525},{"naptanId":"490003947N","name":"Bethell Avenue","lat":51.57024,"lon":0.06389},{"naptanId":"490003828N","name":"Beehive Lane","lat":51.57283,"lon":0.06511},{"naptanId":"490015202M","name":"Gants Hill Station / Cranbrook Road","lat":51.5759,"lon":0.06604},{"naptanId":"490015199B","name":"Gants Hill Station  / Woodford Avenue","lat":51.57739,"lon":0.06526},{"naptanId":"490014972W","name":"Wycombe Road","lat":51.5794,"lon":0.06217},{"naptanId":"490008200W","name":"Beehive Lane","lat":51.58098,"lon":0.05902},{"naptanId":"490007380N","name":"Grasmere Gardens","lat":51.58266,"lon":0.05683},{"naptanId":"490014846N","name":"Woodford Bridge Road","lat":51.58509,"lon":0.05465},{"naptanId":"490011628W","name":"Woodford / Roding Lane South","lat":51.59089,"lon":0.04684},{"naptanId":"490010418W","name":"Woodford Trading Estate","lat":51.59225,"lon":0.04302},{"naptanId":"490005157W","name":"Charlie Browns Roundabout","lat":51.59317,"lon":0.03918},{"naptanId":"490005002W","name":"Chigwell Road","lat":51.59385,"lon":0.03477},{"naptanId":"490010116W","name":"Mulberry Way","lat":51.59523,"lon":0.03078},{"naptanId":"490007137P","name":"High Road South Woodford","lat":51.59532,"lon":0.01966},{"naptanId":"490015469W","name":"Waterworks Corner","lat":51.59508,"lon":0.01262},{"naptanId":"490014287W","name":"Woodford New Road","lat":51.59381,"lon":0.00854},{"naptanId":"490008208W","name":"Hillcrest Road","lat":51.59296,"lon":0.00364},{"naptanId":"490007664W","name":"Hale End Road","lat":51.59269,"lon":0.00141},{"naptanId":"490014907W","name":"Wood Street","lat":51.59186,"lon":-0.00385},{"naptanId":"490013642W","name":"Thorpe Coombe Hospital","lat":51.59106,"lon":-0.00752},{"naptanId":"490014160W","name":"Waltham Forest Town Hall","lat":51.58998,"lon":-0.01193},{"naptanId":"490014163W","name":"Hoe Street / the Bell","lat":51.58995,"lon":-0.01654},{"naptanId":"490014163W2","name":"Bromley Road","lat":51.5903,"lon":-0.0185},{"naptanId":"490009233W","name":"Lloyd Park / William Morris Gallery","lat":51.59049,"lon":-0.02233},{"naptanId":"490014169W","name":"Wolsey Avenue","lat":51.58973,"lon":-0.027},{"naptanId":"490008133W","name":"Higham Hill Road","lat":51.58932,"lon":-0.02943},{"naptanId":"490004944W","name":"Century Road","lat":51.58805,"lon":-0.03326},{"naptanId":"490013345W","name":"Pretoria Avenue","lat":51.58748,"lon":-0.03723},{"naptanId":"490000024C","name":"Blackhorse Rd Stn   / Blackhorse Lane","lat":51.58703,"lon":-0.04142},{"naptanId":"490006821W","name":"Ferry Lane Industrial Estate","lat":51.5867,"lon":-0.04432},{"naptanId":"490006818W","name":"Walthamstow Wetlands / Ferry Boat Inn","lat":51.58621,"lon":-0.05176},{"naptanId":"490004277W","name":"Bream Close","lat":51.58737,"lon":-0.05512},{"naptanId":"490008542T","name":"Mill Mead Road","lat":51.58792,"lon":-0.05859},{"naptanId":"49009917SW","name":"Tottenham Hale Bus Station","lat":51.58823,"lon":-0.06126},{"naptanId":"490013408N","name":"Park View Road","lat":51.5891,"lon":-0.06583},{"naptanId":"490013736N","name":"Tottenham Police Station","lat":51.59039,"lon":-0.07026},{"naptanId":"490001040J","name":"Bruce Grove Station","lat":51.59349,"lon":-0.06973},{"naptanId":"490001040K","name":"Bruce Grove Station","lat":51.59482,"lon":-0.07077},{"naptanId":"490019081Z","name":"Bruce Castle Park & Museum","lat":51.59788,"lon":-0.07445},{"naptanId":"490010091W","name":"Mount Pleasant Road","lat":51.59804,"lon":-0.08025},{"naptanId":"490003521W1","name":"Awlfield Avenue","lat":51.59784,"lon":-0.08313},{"naptanId":"490014177W","name":"Waltheof Avenue","lat":51.59782,"lon":-0.08811},{"naptanId":"490013539W","name":"The Roundway / West Arm","lat":51.59792,"lon":-0.09124},{"naptanId":"490004186W","name":"Boundary Road","lat":51.59687,"lon":-0.09391},{"naptanId":"490008909W","name":"Westbury Avenue Baptist Church","lat":51.59353,"lon":-0.098},{"naptanId":"490000241P","name":"Turnpike Lane Station","lat":51.59091,"lon":-0.10255},{"naptanId":"490000241O","name":"Coleraine Road","lat":51.59151,"lon":-0.10471},{"naptanId":"490014854HB","name":"Wood Green Station","lat":51.59578,"lon":-0.10913}]},{"routeId":"124","stops":[{"naptanId":"490008321S","name":"Holy Trinity Church","lat":51.44852,"lon":0.06417},{"naptanId":"490012279N","name":"Southend Crescent / Southend Close","lat":51.44942,"lon":0.06418},{"naptanId":"490006548W","name":"Eltham High Street / Foots Cray Road","lat":51.4507,"lon":0.06123},{"naptanId":"490006533P","name":"Eltham High Street / St Mary's Place","lat":51.45067,"lon":0.0572},{"naptanId":"490006537M","name":"Eltham High Street / Passey Place","lat":51.45074,"lon":0.05333},{"naptanId":"490015433H","name":"Eltham Church / High Street","lat":51.45091,"lon":0.05132},{"naptanId":"490006542S","name":"Kingsground / Eltham Hill","lat":51.45112,"lon":0.04722},{"naptanId":"490008779S","name":"Kingsground / Eltham Palace Road","lat":51.44753,"lon":0.04375},{"naptanId":"490010238E","name":"Newmarket Green","lat":51.44502,"lon":0.04045},{"naptanId":"490009851S","name":"The Vista","lat":51.44315,"lon":0.0419},{"naptanId":"490006540E1","name":"Eltham Gardens","lat":51.44176,"lon":0.04523},{"naptanId":"490005672E","name":"Middle Park Avenue / Court Road","lat":51.44128,"lon":0.04789},{"naptanId":"490001200B","name":"Mottingham Station","lat":51.44045,"lon":0.05136},{"naptanId":"490010067S","name":"Mottingham Road / Court Road","lat":51.43579,"lon":0.04577},{"naptanId":"490010064S","name":"Mottingham / Prince of Wales","lat":51.43315,"lon":0.04879},{"naptanId":"490011447S","name":"Mottingham Road / Ravensworth Road","lat":51.43079,"lon":0.05192},{"naptanId":"490006254W","name":"Dunkery Road / Mottingham Road","lat":51.42893,"lon":0.05251},{"naptanId":"490015403W","name":"Dunkery Road / Ravensworth Road","lat":51.42878,"lon":0.04912},{"naptanId":"490003709W","name":"Beaconsfield Road","lat":51.42972,"lon":0.04556},{"naptanId":"490005655W","name":"Court Farm Road","lat":51.42975,"lon":0.04199},{"naptanId":"490006215W","name":"Duddington Close","lat":51.429,"lon":0.03806},{"naptanId":"490008073W","name":"Henry Cooper Way","lat":51.42803,"lon":0.0344},{"naptanId":"490009706N1","name":"Marvels Lane Primary School","lat":51.42858,"lon":0.03368},{"naptanId":"490013403N","name":"Marvels Lane / Chinbrook Road","lat":51.43122,"lon":0.03165},{"naptanId":"490003290W","name":"Amblecote Road","lat":51.43157,"lon":0.02649},{"naptanId":"490015553F","name":"Chinbrook Road / Baring Road","lat":51.43151,"lon":0.02213},{"naptanId":"490015256D","name":"Grove Park Station","lat":51.43063,"lon":0.02038},{"naptanId":"490013390W","name":"The Green","lat":51.43026,"lon":0.01597},{"naptanId":"490014009N","name":"Vanoc Gardens","lat":51.4289,"lon":0.01281},{"naptanId":"490012134N","name":"Northover / Shroffold Road","lat":51.4304,"lon":0.01145},{"naptanId":"490014581N","name":"Whitefoot Lane","lat":51.43442,"lon":0.00908},{"naptanId":"490005868W","name":"Crutchley Road","lat":51.43368,"lon":0.00579},{"naptanId":"490006940W","name":"Greenvale School","lat":51.43294,"lon":0.00365},{"naptanId":"490011942W","name":"Scarlet Road","lat":51.43234,"lon":-0.00024},{"naptanId":"490004191E","name":"Boundfield Road","lat":51.43395,"lon":-0.0009},{"naptanId":"490004839N","name":"Castillon Road","lat":51.43528,"lon":0.00245},{"naptanId":"490003694N","name":"Baudwin Road","lat":51.43602,"lon":0.00085},{"naptanId":"490003369N","name":"Ardoch Road","lat":51.43778,"lon":-0.00184},{"naptanId":"490006154N","name":"Dowanhill Road","lat":51.43959,"lon":-0.00193},{"naptanId":"490012534W","name":"Sandhurst Road / St Andrews Church","lat":51.44206,"lon":-0.00263},{"naptanId":"490012684W1","name":"Sandhurst Road / St Fillans Road","lat":51.44205,"lon":-0.00948},{"naptanId":"490008318N","name":"Holy Cross School","lat":51.44293,"lon":-0.01386},{"naptanId":"490009117T","name":"Catford Road / Lewisham Town Hall","lat":51.44476,"lon":-0.02102},{"naptanId":"490004862S","name":"Catford & Catford Bridge Stations","lat":51.44447,"lon":-0.02372},{"naptanId":"490004863Z","name":"Stanstead Road / St Dunstans College","lat":51.44304,"lon":-0.02815}]},{"routeId":"125","stops":[{"naptanId":"490000054CR","name":"Colindale Station","lat":51.59528,"lon":-0.25066},{"naptanId":"490000054CB","name":"Colindale Station","lat":51.59512,"lon":-0.25016},{"naptanId":"490017849E","name":"Aerodrome Road / Colindale Gardens","lat":51.5959,"lon":-0.24528},